Flight_Blade,Controller,Ship,Mass,SCM,NAV,SCM_Boost_Forward,Backward,Main,Retro,Strafe,Up,Down,Boost_Main,Boost_Retro,Boost_Strafe,Boost_Up,Boost_Down,Hydrogen_SCU,Scoop_Min,Quantum_SCU,Flight_time_Min_Min,Flight_time_Max_Min,Pitch,Yaw,Roll,Thruster_Linear_Accel_Decay,Thruster_Angular_Accel_Decay,Torque_Imbalance_Multiplier,Lift_Multiplier,SCM_Drag_Multiplier,Drag_Multiplier,Hover_MAX_Speed,Hover_Turn_Friction,Hover_Air_Control_Multiplier,Hover_Anti-Fall_Multiplier,Hover_Lateral_Strafe_Multiplier,Boost_Available_Segments_Resource,Boost_Activation_Pre-Delay_,Boost_Activation_Ramp-Up,Boost_Activation_Ramp_Down,Boost_Multiplier_Accel._+X,Boost_Multiplier_Accel._-X,Boost_Multiplier_Accel._+Y,Boost_Multiplier_Accel._-Y,Boost_Multiplier_Accel._+Z,Boost_Multiplier_Accel._-Z,Pitch_Boost_Multiplier,Yaw_Boost_Multiplier,Roll_Boost_Multiplier,Pitch_Accel._Boost_Multiplier,Yaw_Accel._Boost_Multiplier,Roll_Accel._Boost_Multiplier,Boost_Capacitor_Size,Boost_Capacitor_Threshold_Ratio,Idle_Cost,Linear_Cost,Angular_Cost,Boost_Capacitor_Regen_Delay,Boost_Capacitor_Regen_Tick,Boost_Capacitor_Regen_Time
Base,AEGS Avenger Stalker,Avenger Stalker,48986,262,1425,610,280,15.5,4,6,6,4,1.675,1.3,1.35,1.35,1.35,9,0,1.1,120,450,53,48,190,3,11.5,1,7,4,5,,,,,,4,0,0.4,0.2,1.35,1.35,1.675,1.3,1.35,1.35,1.2,1.2,1.2,1.2,1.2,1.2,20,0.25,1,0,0,0.2,0.75,27
Better Handling,AEGS Avenger Stalker Flight Blade HND,Avenger Stalker ,48987,254,1400,600,270,15.5,4,6,6,4,1.675,1.3,1.35,1.35,1.35,9,0.00132,1.1,120,460,54,49,192,3,11.5,1,7,4,5,,,,,,4,0,0.4,0.2,1.35,1.35,1.675,1.3,1.35,1.35,1.2,1.2,1.2,1.2,1.2,1.2,20,0.25,1,0,0,0.2,0.75,27
Better Speed,AEGS Avenger Stalker Flight Blade SPD,Avenger Stalker ,48987,270,1450,620,290,15.5,4,6,6,4,1.675,1.3,1.35,1.35,1.35,9,0.00132,1.1,120,460,52,47,188,3,11.5,1,7,4,5,,,,,,4,0,0.4,0.2,1.35,1.35,1.675,1.3,1.35,1.35,1.2,1.2,1.2,1.2,1.2,1.2,20,0.25,1,0,0,0.2,0.75,27
Base,AEGS Avenger Titan,Avenger Titan,48987,262,1425,610,280,15.5,4,6,6,4,1.675,1.3,1.35,1.35,1.35,9,0.00132,1.1,120,460,53,48,190,3,11.5,1,7,4,5,,,,,,4,0,0.4,0.2,1.35,1.35,1.675,1.3,1.35,1.35,1.2,1.2,1.2,1.2,1.2,1.2,20,0.25,1,0,0,0.2,0.75,27
Better Handling,AEGS Avenger Titan Flight Blade HND,Avenger Titan ,48986,254,1400,600,270,15.5,4,6,6,4,1.675,1.3,1.35,1.35,1.35,9,0.00132,1.1,120,460,54,49,192,3,11.5,1,7,4,5,,,,,,4,0,0.4,0.2,1.35,1.35,1.675,1.3,1.35,1.35,1.2,1.2,1.2,1.2,1.2,1.2,20,0.25,1,0,0,0.2,0.75,27
Better Speed,AEGS Avenger Titan Flight Blade SPD,Avenger Titan ,48986,270,1450,620,290,15.5,4,6,6,4,1.675,1.3,1.35,1.35,1.35,9,0.00132,1.1,120,460,52,47,188,3,11.5,1,7,4,5,,,,,,4,0,0.4,0.2,1.35,1.35,1.675,1.3,1.35,1.35,1.2,1.2,1.2,1.2,1.2,1.2,20,0.25,1,0,0,0.2,0.75,27
Base,AEGS Avenger Warlock,Avenger Warlock,48987,262,1425,610,280,15.5,4,6,6,4,1.675,1.3,1.35,1.35,1.35,9,0,1.1,120,450,53,48,190,3,11.5,1,7,4,5,,,,,,4,0,0.4,0.2,1.35,1.35,1.675,1.3,1.35,1.35,1.2,1.2,1.2,1.2,1.2,1.2,20,0.25,1,0,0,0.2,0.75,27
Better Handling,AEGS Avenger Warlock Flight Blade HND,Avenger Warlock,48987,254,1400,600,270,15.5,4,6,6,4,1.675,1.3,1.35,1.35,1.35,9,0,1.1,120,450,54,49,192,3,11.5,1,7,4,5,,,,,,4,0,0.4,0.2,1.35,1.35,1.675,1.3,1.35,1.35,1.2,1.2,1.2,1.2,1.2,1.2,20,0.25,1,0,0,0.2,0.75,27
Better Speed,AEGS Avenger Warlock Flight Blade SPD,Avenger Warlock,48987,270,1450,620,290,15.5,4,6,6,4,1.675,1.3,1.35,1.35,1.35,9,0,1.1,120,450,52,47,188,3,11.5,1,7,4,5,,,,,,4,0,0.4,0.2,1.35,1.35,1.675,1.3,1.35,1.35,1.2,1.2,1.2,1.2,1.2,1.2,20,0.25,1,0,0,0.2,0.75,27
Base,AEGS Eclipse,Eclipse,45720,210,1100,510,215,10.5,4.5,6.5,6.5,3.5,1.5,1.4,1.35,1.3,1.4,9,0,1.8,150,420,38,31,115,3,7.5,1,7,4,5,,,,,,4,0,0.6,0.2,1.35,1.35,1.5,1.4,1.3,1.4,1.2,1.2,1.2,1.2,1.2,1.2,20,0.25,1,0,0,0.6,0.75,27
Base,AEGS Gladius,Gladius,48552,226,1193,520,268,13.6,4.2,10,10,5,1.55,1.4,1.3,1.3,1.35,13.5,0,1.3,170,630,68,52,200,6,12,0.35,7,4,5,,,,,,4,0,0.6,0.3,1.3,1.3,1.55,1.4,1.3,1.35,1.2,1.2,1.2,1.2,1.2,1.2,20,0.25,1,0,0,0.2,0.75,27
Better Handling,AEGS Gladius Blade HND,Gladius  ,48552,218,1168,510,258,13.6,4.2,10,10,5,1.55,1.4,1.3,1.3,1.35,13.5,0,1.3,170,630,69,53,202,6,12,0.35,7,4,5,,,,,,4,0,0.6,0.3,1.3,1.3,1.55,1.4,1.3,1.35,1.2,1.2,1.2,1.2,1.2,1.2,20,0.25,1,0,0,0.2,0.75,27
Better Speed,AEGS Gladius Blade SPD,Gladius  ,48552,234,1218,530,278,13.6,4.2,10,10,5,1.55,1.4,1.3,1.3,1.35,13.5,0,1.3,170,630,67,51,198,6,12,0.35,7,4,5,,,,,,4,0,0.6,0.3,1.3,1.3,1.55,1.4,1.3,1.35,1.2,1.2,1.2,1.2,1.2,1.2,20,0.25,1,0,0,0.2,0.75,27
Base,AEGS Hammerhead,Hammerhead,4542311,160,1000,340,170,5,2,2,2.5,2.5,1.5,1.2,1.35,1.3,1.2,450,0,6.6,160,999,20,20,30,4,12,0.45,7,4,5,,,,,,8,0,2,0.2,1.35,1.35,1.5,1.2,1.3,1.2,1.5,1.5,2,1.5,2,1.5,20,0.25,1,0,0,1.1,0.75,28
Better Handling,AEGS Hammerhead Flight Blade HND,Hammerhead,4542311,152,975,330,160,5,2,2,2.5,2.5,1.5,1.2,1.35,1.3,1.2,450,0,6.6,160,999,21,21,32,4,12,0.45,7,4,5,,,,,,8,0,2,0.2,1.35,1.35,1.5,1.2,1.3,1.2,1.5,1.5,2,1.5,2,1.5,20,0.25,1,0,0,1.1,0.75,28
Better Speed,AEGS Hammerhead Flight Blade SPD,Hammerhead,4542311,168,1025,350,180,5,2,2,2.5,2.5,1.5,1.2,1.35,1.3,1.2,450,0,6.6,160,999,19,19,28,4,12,0.45,7,4,5,,,,,,8,0,2,0.2,1.35,1.35,1.5,1.2,1.3,1.2,1.5,1.5,2,1.5,2,1.5,20,0.25,1,0,0,1.1,0.75,28
Base,AEGS Idris,Idris,37854373,110,850,220,125,2,1.5,0.8,2,1.8,1.5,1.2,1.35,1.3,1.2,6400,0,120,510,999,7,7,12,1.5,3,1,7,4,5,,,,,,10,0.15,0,0.2,1.35,1.35,1.5,1.2,1.3,1.2,1.2,1.2,1.2,1.5,1.5,1.5,1500,0.25,50,1,0.2,1.3,50,31
Base,AEGS Javelin,Javelin,68351,50,900,290,230,12,4.4,12,12,12,1.4,1.35,1.4,1.4,1.4,26,0.00174,1.1,510,999,7,8,15,1,2.5,1,7,4,5,,,,,,10,0.15,0,0.2,2,2,2,2,2,2,1.2,1.2,1.2,3,3,3,1500,0.25,50,1,0.2,1.3,50,31
Base,AEGS Reclaimer,Reclaimer,9509854,110,870,290,115,2,1.5,1,2,2,1.35,1.4,1.3,1.4,1.3,1754,0.012,8.6,540,999,11,11,14,12,10,1,7,4,5,,,,,,10,0,2,0.2,1.3,1.3,1.35,1.4,1.4,1.3,1.2,1.2,1.2,1.2,1.2,1.2,20,0.25,1,0,0,1.1,0.75,28
Base,AEGS Redeemer,Redeemer,420870,203,1050,400,215,10,2.7,5,5,3,1.3,1.25,1.35,1.3,1.3,66,0,1.8,160,999,36,30,115,3,12,1,7,4,5,,,,,,8,0,0.7,0.5,1.35,1.35,1.3,1.25,1.3,1.3,1.2,1.2,1.2,1.2,1.2,1.2,20,0.25,1,0,0,1,0.75,28
Better Handling,AEGS Redeemer Flight Blade HND,Redeemer ,35153,195,1025,390,205,11.6,5.2,7.9,7.9,7.9,1.55,1.4,1.33,1.3,1.35,10.5,0.00048,1.3,120,330,37,31,117,3,12,1,7,4,5,,,,,,8,0,0.7,0.5,1.35,1.35,1.3,1.25,1.3,1.3,1.2,1.2,1.2,1.2,1.2,1.2,20,0.25,1,0,0,1,0.75,28
Better Speed,AEGS Redeemer Flight Blade SPD,Redeemer ,35153,211,1075,410,225,11.6,5.2,7.9,7.9,7.9,1.55,1.4,1.33,1.3,1.35,10.5,0.00048,1.3,120,330,35,29,113,3,12,1,7,4,5,,,,,,8,0,0.7,0.5,1.35,1.35,1.3,1.25,1.3,1.3,1.2,1.2,1.2,1.2,1.2,1.2,20,0.25,1,0,0,1,0.75,28
Base,AEGS Retaliator,Retaliator,317870,205,1100,400,206,5.1,2.5,2.5,3.1,2.5,1.5,1.2,1.35,1.3,1.2,51,0,2.6,195,999,25,23,55,2,4.25,1,7,4,5,,,,,,6,0,1.5,0.2,1.35,1.35,1.5,1.2,1.3,1.2,1.2,1.2,1.2,1.2,1.2,1.2,20,0.25,1,0,0,0.9,0.75,28
Base,AEGS Sabre,Sabre,83093,223,1235,480,230,12.2,4.3,8.6,9.1,4.8,1.55,1.4,1.35,1.3,1.35,13.5,0,1.3,140,630,62,48,160,3,11.65,0.3,7,4,5,,,,,,4,0,0.6,0.2,1.35,1.35,1.55,1.4,1.3,1.35,1.2,1.2,1.2,1.2,1.2,1.2,20,0.25,1,0,0,0.5,0.75,27
Base,AEGS Sabre Firebird,Sabre Firebird,73493,240,1400,600,260,14.7,3.4,4.4,5.8,3.4,1.7,1.3,1.35,1.35,1.35,12,0,1.3,110,510,49,41,160,3,10.25,0.15,7,4,5,,,,,,4,0,0.4,0.2,1.35,1.35,1.7,1.3,1.35,1.35,1.2,1.2,1.2,1.2,1.2,1.2,25,0.25,1,0,0,0.4,0.75,34
Base,AEGS Sabre Peregrine,Sabre Peregrine,73493,267,1447,655,277,16.9,3.5,5.2,6.8,4.2,1.79,1.23,1.35,1.35,1.35,12,0,1.3,100,510,61,51,187,3,10.25,0.15,7,4,5,,,,,,4,0,0.4,0.2,1.35,1.35,1.79,1.23,1.35,1.35,1.2,1.2,1.2,1.2,1.2,1.2,25,0.25,1,0,0,0.4,0.75,34
Base,AEGS Sabre Raven,Sabre Raven,68711,240,1400,600,260,15,3.4,4.5,6,3.4,1.7,1.3,1.35,1.35,1.35,12,0,1.3,110,510,52,43,160,3,10.25,0.15,7,4,5,,,,,,4,0,0.4,0.2,1.35,1.35,1.7,1.3,1.35,1.35,1.2,1.2,1.2,1.2,1.2,1.2,25,0.25,1,0,0,0.4,0.75,34
Base,AEGS Vanguard Warden,Vanguard Warden,238070,210,1075,458,220,9.1,3.2,6.6,6.6,4,1.5,1.4,1.35,1.3,1.4,40.5,0.003,2,140,999,44,38,124,12.5,7.5,0.3,7,4,5,,,,,,6,0,0.6,0.2,1.35,1.35,1.5,1.4,1.3,1.4,1.2,1.2,1.2,1.2,1.2,1.2,20,0.1,1,0,0,0.7,0.75,27
Base,AEGS Vanguard Harbinger,Vanguard Harbinger,230404,212,1085,462,224,9.1,3.2,6.6,6.6,4,1.5,1.4,1.35,1.3,1.4,39,0.003,2,140,999,41,35,120,12.5,7.5,0.3,7,4,5,,,,,,6,0,0.6,0.2,1.35,1.35,1.5,1.4,1.3,1.4,1.2,1.2,1.2,1.2,1.2,1.2,20,0.1,1,0,0,0.7,0.75,27
Base,AEGS Vanguard Hoplite,Vanguard Hoplite,217870,209,1115,435,246,10.7,2.4,4.1,4.6,5.2,1.5,1.4,1.2,1.3,1.4,39,0.003,2,150,999,35,30,105,12,12,0.3,7,4,5,,,,,,6,0,1.2,0.2,1.2,1.2,1.5,1.4,1.3,1.4,1.2,1.2,1.2,1.2,1.2,1.2,20,0.1,1,0,0,0.9,0.75,28
Base,AEGS Vanguard Sentinel,Vanguard Sentinel,225970,217,1075,462,224,9.1,3.3,6.5,6.6,4,1.5,1.4,1.35,1.3,1.4,39,0.003,2,140,999,44,39,126,12.5,7.5,0.3,7,4,5,,,,,,6,0,0.6,0.2,1.35,1.35,1.5,1.4,1.3,1.4,1.2,1.2,1.2,1.2,1.2,1.2,20,0.1,1,0,0,0.7,0.75,27
Base,ANVL Arrow,Arrow,30510,229,1215,515,265,13.5,4.5,10.7,10.7,5.2,1.55,1.4,1.3,1.3,1.35,7.5,0,1.1,120,380,75,57,205,6,12,1,7,4,5,,,,,,4,0,0.6,0.2,1.3,1.3,1.55,1.4,1.3,1.35,1.2,1.2,1.2,1.2,1.2,1.2,20,0.25,1,0,0,0.2,0.75,27
Better Handling,ANVL Arrow Flight Blade HND,Arrow ,610246,221,1190,505,255,4.6,2.5,3.6,3.8,3.8,1.5,1.4,1.2,1.3,1.4,97.5,0,1.85,195,999,76,58,207,6,12,1,7,4,5,,,,,,4,0,0.6,0.2,1.3,1.3,1.55,1.4,1.3,1.35,1.2,1.2,1.2,1.2,1.2,1.2,20,0.25,1,0,0,0.2,0.75,27
Better Speed,ANVL Arrow Flight Blade SPD,Arrow ,610246,237,1240,525,275,4.6,2.5,3.6,3.8,3.8,1.5,1.4,1.2,1.3,1.4,97.5,0,1.85,195,999,74,56,203,6,12,1,7,4,5,,,,,,4,0,0.6,0.2,1.3,1.3,1.55,1.4,1.3,1.35,1.2,1.2,1.2,1.2,1.2,1.2,20,0.25,1,0,0,0.2,0.75,27
Base,ANVL Asgard,Asgard,610246,203,1075,425,240,4.6,2.5,3.6,3.8,3.8,1.5,1.4,1.2,1.3,1.4,97.5,0,1.85,195,999,32.5,27.5,95,12,12,0.85,7,4,5,,,,,,6,0,1.2,0.2,1.2,1.2,1.5,1.4,1.3,1.4,1.2,1.2,1.2,1.2,1.2,1.2,20,0.1,1,0,0,0.9,0.75,28
Base,ANVL Carrack,Carrack,3275858,140,1050,315,160,3.8,1.5,1.1,2,1.1,1.5,1.2,1.35,1.3,1.2,360,0.048,10.6,195,999,16,16,30,12,14,1,7,4,5,,,,,,8,0,2,0.2,1.35,1.35,1.5,1.2,1.3,1.2,1.2,1.2,1.2,1.2,1.2,1.2,20,0.25,1,0,0,1.3,0.75,28
Base,ANVL Gladiator,Gladiator,86108,210,1125,480,250,9.5,3.8,5.7,6.6,2.8,1.55,1.4,1.35,1.3,1.35,15,0,1.3,255,830,40,40,130,3,11.2,0.6,7,4,5,,,,,,4,0,0.6,0.2,1.35,1.35,1.55,1.4,1.3,1.35,1.2,1.2,1.2,1.2,1.2,1.2,20,0.25,1,0,0,0.5,0.75,27
Base,ANVL Hawk,Hawk,64166,225,1217,490,250,12.8,4.1,9.7,9.7,4.8,1.55,1.4,1.3,1.3,1.35,10.5,0,1.1,80,420,63,52,190,6,10.5,0.35,7,4,5,,,,,,4,0,0.6,0.2,1.3,1.3,1.55,1.4,1.3,1.35,1.2,1.2,1.2,1.2,1.2,1.2,20,0.25,1,0,0,0.2,0.75,27
Base,ANVL Hornet F7A,F7A Hornet,72032,220,1150,480,250,10.7,3.8,6.9,7.8,4.2,1.55,1.4,1.35,1.35,1.35,14,0.00216,1.3,225,900,55,44,149,3,11.76,1,7,4,5,,,,,,4,0,0.6,0.3,1.35,1.35,1.55,1.4,1.35,1.35,1.2,1.2,1.2,1.2,1.2,1.2,20,0.25,1,0,0,0.5,0.75,27
Base,ANVL Hornet F7A Mk1,F7A Hornet Mk I,72032,220,1146,479,249,10.7,3.8,6.9,7.8,4.2,1.55,1.4,1.35,1.35,1.35,14,0.00216,1.3,225,900,53,42,147,3,11.76,1,7,4,5,,,,,,4,0,0.6,0.3,1.35,1.35,1.55,1.4,1.35,1.35,1.2,1.2,1.2,1.2,1.2,1.2,20,0.25,1,0,0,0.5,0.75,27
Base,ANVL Hornet F7A Mk2,F7A Hornet Mk II,66117,220,1146,479,249,10.8,3.9,7.3,7.7,4.4,1.55,1.4,1.35,1.35,1.35,16,0.00216,1.3,140,840,50,40,143,3,11.76,1,7,4,5,,,,,,4,0,0.6,0.3,1.35,1.35,1.55,1.4,1.35,1.35,1.2,1.2,1.2,1.2,1.2,1.2,20,0.25,1,0,0,0.5,0.75,27
Base,ANVL Hornet F7C,F7C Hornet Mk I,72032,220,1150,480,250,11.4,4,7.9,8.2,7.5,1.55,1.4,1.35,1.35,1.35,12,0.00216,1.3,150,770,55,44,149,3,11.76,1,7,4,5,,,,,,4,0,0.6,0.3,1.35,1.35,1.55,1.4,1.35,1.35,1.2,1.2,1.2,1.2,1.2,1.2,20,0.25,1,0,0,0.5,0.75,27
Base,ANVL Hornet F7C Mk2,F7C Hornet Mk II,62117,220,1150,480,250,11,3.9,7.6,8,4.6,1.55,1.4,1.35,1.35,1.35,16,0.00216,1.3,140,840,52,43,148,3,11.76,1,7,4,5,,,,,,4,0,0.6,0.3,1.35,1.35,1.55,1.4,1.35,1.35,1.2,1.2,1.2,1.2,1.2,1.2,20,0.25,1,0,0,0.5,0.75,27
Base,ANVL Hornet F7CM,F7C-M Super Hornet Mk I,76786,219,1142,477,249,10.9,3.9,7.2,7.9,4.4,1.55,1.4,1.35,1.35,1.35,13.5,0.00216,1.3,110,870,53,42,145,3,11.76,1,7,4,5,,,,,,4,0,0.6,0.3,1.35,1.35,1.55,1.4,1.35,1.35,1.2,1.2,1.2,1.2,1.2,1.2,20,0.25,1,0,0,0.5,0.75,27
Base,ANVL Hornet F7CM Mk2,F7C-M Super Hornet Mk II,68317,215,1125,465,240,9.8,3.2,6.5,6.9,4,1.55,1.4,1.35,1.35,1.35,16,0.00216,1.3,150,840,50,40,140,3,11.76,1,7,4,5,,,,,,4,0,0.6,0.3,1.35,1.35,1.55,1.4,1.35,1.35,1.2,1.2,1.2,1.2,1.2,1.2,20,0.25,1,0,0,0.5,0.75,27
Base,ANVL Hornet F7CR,F7C-R Hornet Tracker Mk I,72097,219,1142,477,249,11.2,4,7.6,8,4.7,1.55,1.4,1.35,1.35,1.35,12,0.00216,1.8,150,770,56,45,150,3,11.76,1,7,4,5,,,,,,4,0,0.6,0.3,1.35,1.35,1.55,1.4,1.35,1.35,1.2,1.2,1.2,1.2,1.2,1.2,20,0.25,1,0,0,0.5,0.75,27
Base,ANVL Hornet F7CR Mk2,F7C-R Hornet Tracker Mk II,66117,220,1150,480,250,11,3.9,7.6,8,4.6,1.55,1.4,1.35,1.35,1.35,14.4,0.00216,1.8,130,750,52,43,148,3,11.76,1,7,4,5,,,,,,4,0,0.6,0.3,1.35,1.35,1.55,1.4,1.35,1.35,1.2,1.2,1.2,1.2,1.2,1.2,20,0.25,1,0,0,0.5,0.75,27
Base,ANVL Hornet F7CS,F7C-S Hornet Ghost Mk I,71624,219,1142,477,249,11.1,4,7.8,8.1,4.8,1.55,1.4,1.35,1.35,1.35,12,0.00216,1.3,150,770,55,44,149,3,11.76,1,7,4,5,,,,,,4,0,0.6,0.3,1.35,1.35,1.55,1.4,1.35,1.35,1.2,1.2,1.2,1.2,1.2,1.2,20,0.25,1,0,0,0.5,0.75,27
Base,ANVL Hornet F7CS Mk2,F7C-S Hornet Ghost Mk II,66117,220,1150,480,250,11,3.9,7.6,8,4.6,1.55,1.4,1.35,1.35,1.35,14.4,0.00216,1.3,130,750,51,42,147,3,11.76,1,7,4,5,,,,,,4,0,0.6,0.3,1.35,1.35,1.55,1.4,1.35,1.35,1.2,1.2,1.2,1.2,1.2,1.2,20,0.25,1,0,0,0.5,0.75,27
Base,ANVL Hurricane,Hurricane,86745,214,1125,480,225,10,3.6,7.5,7.5,4.4,1.55,1.4,1.33,1.3,1.34,13.5,0,1.3,110,630,46,37,130,3,11,1,7,4,5,,,,,,4,0,0.6,0.2,1.33,1.33,1.55,1.4,1.3,1.34,1.2,1.2,1.2,1.2,1.2,1.2,20,0.25,1,0,0,0.7,0.75,27
Base,ANVL Lightning F8,F8,153775,210,1075,445,218,10,3.5,6.5,6.5,3.5,1.5,1.4,1.35,1.3,1.4,37.2,0.00216,1.3,180,999,38,35,140,3,12,1,7,4,5,,,,,,6,0,0.6,0.3,1.35,1.35,1.5,1.4,1.3,1.4,1.2,1.2,1.2,1.2,1.2,1.2,20,0.25,1,0,0,0.7,0.75,27
Base,ANVL Lightning F8C,F8C Lightning,153775,210,1075,445,218,10,3.5,6.5,6.5,3.5,1.5,1.4,1.35,1.3,1.4,37.2,0.00216,1.3,180,999,38,35,140,3,12,1,7,4,5,,,,,,6,0,0.6,0.3,1.35,1.35,1.5,1.4,1.3,1.4,1.2,1.2,1.2,1.2,1.2,1.2,20,0.25,1,0,0,0.7,0.75,27
Base,ANVL Paladin,Paladin,500000,175,950,340,200,4.5,2.3,2.5,2.4,1.9,1.5,1.2,1.35,1.3,1.2,61,0,3.85,140,999,23,19,45,12,12,0.3,7,4,5,,,,,,6,0,1.5,0.5,1.35,1.35,1.5,1.2,1.3,1.2,1.2,1.2,1.2,1.2,1.2,1.2,20,0.1,1,0,0,0.9,0.75,28
Base,ANVL Pisces,Pisces,10427000,220,1150,460,300,2.7,1.5,1.5,2,2,1.5,1.2,1.35,1.3,1.2,1100,0.0009,12.6,315,999,60,60,150,3,7,1,7,4,5,,,,,,4,0,0.6,0.2,1.3,1.3,1.55,1.4,1.3,1.3,1.2,1.2,1.2,1.2,1.2,1.2,20,0.25,1,0,0,1.1,0.75,28
Base,ANVL Pisces C8R,C8R Pisces Rescue,45243,220,1150,460,300,7.9,2.4,4.4,6.2,5.4,1.55,1.4,1.3,1.3,1.3,3.2,0.00072,1.8,39,112,56,56,142,3,7,1,7,4,5,,,,,,4,0,0.6,0.2,1.3,1.3,1.55,1.4,1.3,1.3,1.2,1.2,1.2,1.2,1.2,1.2,20,0.25,1,0,0,1.1,0.75,28
Better Handling,ANVL Pisces C8R Flight Blade HND,C8R Pisces Rescue,45243,212,1125,450,290,7.9,2.4,4.4,6.2,5.4,1.55,1.4,1.3,1.3,1.3,3.2,0.00072,1.8,39,112,57,57,144,3,7,1,7,4,5,,,,,,4,0,0.6,0.2,1.3,1.3,1.55,1.4,1.3,1.3,1.2,1.2,1.2,1.2,1.2,1.2,20,0.25,1,0,0,1.1,0.75,28
Better Speed,ANVL Pisces C8R Flight Blade SPD,C8R Pisces Rescue,45243,228,1175,470,310,7.9,2.4,4.4,6.2,5.4,1.55,1.4,1.3,1.3,1.3,3.2,0.00072,1.8,39,112,55,55,140,3,7,1,7,4,5,,,,,,4,0,0.6,0.2,1.3,1.3,1.55,1.4,1.3,1.3,1.2,1.2,1.2,1.2,1.2,1.2,20,0.25,1,0,0,1.1,0.75,28
Base,ANVL Pisces C8X,C8X Pisces Expedition,45243,220,1150,460,300,7.9,2.4,4.4,6.2,5.4,1.55,1.4,1.3,1.3,1.3,3.2,0.00072,1.8,39,112,60,60,150,3,7,1,7,4,5,,,,,,4,0,0.6,0.2,1.3,1.3,1.55,1.4,1.3,1.3,1.2,1.2,1.2,1.2,1.2,1.2,20,0.25,1,0,0,1.1,0.75,28
Better Handling,ANVL Pisces C8X Flight Blade HND,C8X Pisces Expedition,45243,212,1125,450,290,7.9,2.4,4.4,6.2,5.4,1.55,1.4,1.3,1.3,1.3,3.2,0.00072,1.8,39,112,61,61,152,3,7,1,7,4,5,,,,,,4,0,0.6,0.2,1.3,1.3,1.55,1.4,1.3,1.3,1.2,1.2,1.2,1.2,1.2,1.2,20,0.25,1,0,0,1.1,0.75,28
Better Speed,ANVL Pisces C8X Flight Blade SPD,C8X Pisces Expedition,45243,228,1175,470,310,7.9,2.4,4.4,6.2,5.4,1.55,1.4,1.3,1.3,1.3,3.2,0.00072,1.8,39,112,59,59,148,3,7,1,7,4,5,,,,,,4,0,0.6,0.2,1.3,1.3,1.55,1.4,1.3,1.3,1.2,1.2,1.2,1.2,1.2,1.2,20,0.25,1,0,0,1.1,0.75,28
Better Handling,ANVL Pisces Flight Blade HND,Pisces ,10427000,212,1125,450,290,2.7,1.5,1.5,2,2,1.5,1.2,1.35,1.3,1.2,1100,0.0009,12.6,315,999,61,61,152,3,7,1,7,4,5,,,,,,4,0,0.6,0.2,1.3,1.3,1.55,1.4,1.3,1.3,1.2,1.2,1.2,1.2,1.2,1.2,20,0.25,1,0,0,1.1,0.75,28
Better Speed,ANVL Pisces Flight Blade SPD,Pisces ,10427000,228,1175,470,310,2.7,1.5,1.5,2,2,1.5,1.2,1.35,1.3,1.2,1100,0.0009,12.6,315,999,59,59,148,3,7,1,7,4,5,,,,,,4,0,0.6,0.2,1.3,1.3,1.55,1.4,1.3,1.3,1.2,1.2,1.2,1.2,1.2,1.2,20,0.25,1,0,0,1.1,0.75,28
Base,ANVL Terrapin,Terrapin,149850,200,1150,320,240,9.2,2.4,3,3.4,3.4,1.5,1.4,1.2,1.3,1.4,104.5,0.00108,1.8,870,999,35,35,120,6,8,0.3,7,4,5,,,,,,6,0,1.2,0.2,1.2,1.2,1.5,1.4,1.3,1.4,1.2,1.2,1.2,1.2,1.2,1.2,20,0.1,1,0,0,0.9,0.75,28
Base,ANVL Terrapin Medic,Terrapin Medic,149850,200,1150,320,240,9.2,2.4,3,3.4,3.4,1.5,1.4,1.2,1.3,1.4,104.5,0.00108,4,870,999,35,35,120,6,12,1,7,4,5,,,,,,4,0,1.2,0.2,1.2,1.2,1.5,1.4,1.3,1.4,1.2,1.2,1.2,1.2,1.2,1.2,20,0.1,1,0,0,0.9,0.75,28
Base,ANVL Valkyrie,Valkyrie,597246,207,1110,431,245,5.6,2.5,4.1,4.3,4.3,1.5,1.4,1.2,1.3,1.4,94.5,0,1.8,170,999,34,29,98,12,12,0.3,7,4,5,,,,,,6,0,1.2,0.2,1.2,1.2,1.5,1.4,1.3,1.4,1.2,1.2,1.2,1.2,1.2,1.2,20,0.1,1,0,0,0.9,0.75,28
Base,ARGO MOLE,MOLE,852686,140,960,340,150,4.9,3.4,2.7,3,2.9,1.41,1.39,1.3,1.4,1.3,200,0,2.6,315,999,30,30,75,1.8,3.7,1,7,4,5,,,,,,8,0,2.1,0.7,1.3,1.3,1.41,1.39,1.4,1.3,1.2,1.2,1.2,1.2,1.2,1.2,20,0.25,1,0,0,1.1,0.75,28
Base,ARGO MOTH,MOTH,852686,140,960,340,150,5,3.5,3,3,3,1.41,1.39,1.3,1.4,1.3,200,0,2.6,300,999,30,30,75,1.8,3.7,0.3,7,4,5,,,,,,8,0,2.1,0.7,1.3,1.3,1.41,1.39,1.4,1.3,1.2,1.2,1.2,1.2,1.2,1.2,20,0.25,1,0,0,1.1,0.75,28
Base,ARGO MPUV,MPUV Cargo,9210,170,890,360,140,3.8,2.7,1.9,2.8,2.4,1.4,1.35,1.3,1.3,1.3,3,0,0,80,93,30,30,85,10,7.5,1,7,4,5,,,,,,4,0,0.6,0.2,1.3,1.3,1.4,1.35,1.3,1.3,1.2,1.2,1.2,1.2,1.2,1.2,20,0.25,1,0,0,1.1,0.75,28
Base,ARGO MPUV 1T,MPUV Tractor,6195,175,895,365,145,5,2.9,1.6,4.9,2.1,1.4,1.35,1.3,1.3,1.3,3,0,0,80,93,35,35,85,3,7,1,7,4,5,,,,,,2,0,0.6,0.2,1.3,1.3,1.4,1.35,1.3,1.3,1.2,1.2,1.2,1.2,1.2,1.2,20,0.25,1,0,0,1.1,0.75,28
Better Handling,ARGO MPUV 1T Flight Blade HND,MPUV Tractor,6195,167,870,355,135,5,2.9,1.6,4.9,2.1,1.4,1.35,1.3,1.3,1.3,3,0,0,80,93,36,36,87,3,7,1,7,4,5,,,,,,2,0,0.6,0.2,1.3,1.3,1.4,1.35,1.3,1.3,1.2,1.2,1.2,1.2,1.2,1.2,20,0.25,1,0,0,1.1,0.75,28
Better Speed,ARGO MPUV 1T Flight Blade SPD,MPUV Tractor,6195,183,920,375,155,5,2.9,1.6,4.9,2.1,1.4,1.35,1.3,1.3,1.3,3,0,0,80,93,34,34,83,3,7,1,7,4,5,,,,,,2,0,0.6,0.2,1.3,1.3,1.4,1.35,1.3,1.3,1.2,1.2,1.2,1.2,1.2,1.2,20,0.25,1,0,0,1.1,0.75,28
Better Handling,ARGO MPUV Flight Blade HND,MPUV Cargo,9210,162,865,350,130,3.8,2.7,1.9,2.8,2.4,1.4,1.35,1.3,1.3,1.3,3,0,0,80,93,31,31,87,10,7.5,1,7,4,5,,,,,,4,0,0.6,0.2,1.3,1.3,1.4,1.35,1.3,1.3,1.2,1.2,1.2,1.2,1.2,1.2,20,0.25,1,0,0,1.1,0.75,28
Better Speed,ARGO MPUV Flight Blade SPD,MPUV Cargo,9210,178,915,370,150,3.8,2.7,1.9,2.8,2.4,1.4,1.35,1.3,1.3,1.3,3,0,0,80,93,29,29,83,10,7.5,1,7,4,5,,,,,,4,0,0.6,0.2,1.3,1.3,1.4,1.35,1.3,1.3,1.2,1.2,1.2,1.2,1.2,1.2,20,0.25,1,0,0,1.1,0.75,28
Base,ARGO MPUV Transport,MPUV Personnel,9210,170,890,360,140,3.8,2.7,1.9,2.8,2.4,1.4,1.35,1.3,1.3,1.3,3,0,0,80,93,30,30,85,10,7.5,1,7,4,5,,,,,,4,0,0.6,0.2,1.3,1.3,1.4,1.35,1.3,1.3,1.2,1.2,1.2,1.2,1.2,1.2,20,0.25,1,0,0,1.1,0.75,28
Better Handling,ARGO MPUV Transport Flight Blade HND,MPUV Personnel,9210,162,865,350,130,3.8,2.7,1.9,2.8,2.4,1.4,1.35,1.3,1.3,1.3,3,0,0,80,93,31,31,87,10,7.5,1,7,4,5,,,,,,4,0,0.6,0.2,1.3,1.3,1.4,1.35,1.3,1.3,1.2,1.2,1.2,1.2,1.2,1.2,20,0.25,1,0,0,1.1,0.75,28
Better Speed,ARGO MPUV Transport Flight Blade SPD,MPUV Personnel,9210,178,915,370,150,3.8,2.7,1.9,2.8,2.4,1.4,1.35,1.3,1.3,1.3,3,0,0,80,93,29,29,83,10,7.5,1,7,4,5,,,,,,4,0,0.6,0.2,1.3,1.3,1.4,1.35,1.3,1.3,1.2,1.2,1.2,1.2,1.2,1.2,20,0.25,1,0,0,1.1,0.75,28
Base,ARGO RAFT,RAFT,639886,140,990,340,150,4,2.1,3,3,2,1.4,1.4,1.3,1.4,1.3,225,0,1.8,450,999,30,30,75,10,7.5,1,7,4,5,,,,,,6,0,2.5,0.8,1.3,1.3,1.4,1.4,1.4,1.3,1.2,1.2,1.2,1.2,1.2,1.2,20,0.25,1,0,0,1.1,0.75,28
Base,ARGO SRV,SRV,449970,200,1100,460,235,3.8,2,1.3,2,2,1.35,1.4,1.3,1.4,1.3,28.5,0,3.1,90,660,30,30,60,10,7.5,1,7,4,5,,,,,,6,0,1.5,0.2,1.3,1.3,1.35,1.4,1.4,1.3,1.2,1.2,1.2,1.2,1.2,1.2,20,0.25,1,0,0,1.1,0.75,28
Base,BANU Defender,Defender,119930,222,1175,480,255,11.9,4.2,8.9,8.8,4.4,1.55,1.4,1.35,1.3,1.35,43,0,3.1,180,999,61,61,170,6,12,0.3,7,4,5,,,,,,4,0,0.6,0.2,1.35,1.35,1.55,1.4,1.3,1.35,1.2,1.2,1.2,1.2,1.2,1.2,20,0.25,1,0,0,0.5,0.75,27
Gravlev,CNOU HoverQuad,HoverQuad,4850,200,550,280,120,2.5,2.1,1.3,1.9,1.9,1.35,1.35,1.3,1.2,1.2,1.6,0,0,37,39,70,70,130,3,7,1,7,4,5,200,40,1,5,2,2,0.15,0,0.2,1.3,1.3,1.35,1.35,1.2,1.2,1.2,1.2,1.2,1.2,1.2,1.2,20,0.2,2,0,0,3.5,1.25,20
Base,CNOU Mustang Alpha,Mustang Alpha,31221,228,1218,500,260,12.7,4.2,9.8,9.8,5,1.55,1.4,1.3,1.3,1.35,6,0.00048,1.1,60,210,70,53,205,6,11.3,0.15,7,4,5,,,,,,4,0.15,0.6,0.3,1.3,1.3,1.55,1.4,1.3,1.35,1.2,1.2,1.2,1.2,1.2,1.2,20,0.25,1,0,0,0.2,0.75,27
Base,CNOU Mustang Beta,Mustang Beta,38113,228,1218,500,260,12.8,4.2,9.8,9.7,4.9,1.55,1.4,1.3,1.3,1.35,8,0.00024,1.1,80,280,70,53,205,6,11.3,0.15,7,4,5,,,,,,4,0.15,0.6,0.3,1.3,1.3,1.55,1.4,1.3,1.35,1.2,1.2,1.2,1.2,1.2,1.2,20,0.25,1,0,0,0.2,0.75,27
Base,CNOU Mustang Delta,Mustang Delta,35763,226,1195,500,260,12.4,4,9.5,9.5,4.9,1.55,1.4,1.3,1.3,1.35,7.5,0,1.1,70,260,69,52,202,6,11.3,0.15,7,4,5,,,,,,4,0.15,0.6,0.3,1.3,1.3,1.55,1.4,1.3,1.35,1.2,1.2,1.2,1.2,1.2,1.2,20,0.25,1,0,0,0.2,0.75,27
Base,CNOU Mustang Gamma,Mustang Gamma,28565,244,1230,533,273,14,4.7,11,11,6,1.55,1.4,1.3,1.3,1.35,6,0,1.1,60,200,84,65,235,6,11.3,0.15,7,4,5,,,,,,4,0,0.6,0.3,1.3,1.3,1.55,1.4,1.3,1.35,1.2,1.2,1.2,1.2,1.2,1.2,25,0.25,1,0,0,0.2,0.75,34
Base,CNOU Mustang Omega,Mustang Omega,28565,244,1230,533,273,14,4.7,11,11,6,1.55,1.4,1.3,1.3,1.35,6,0,1.1,60,200,84,65,235,6,11.3,0.15,7,4,5,,,,,,4,0,0.6,0.3,1.3,1.3,1.55,1.4,1.3,1.35,1.2,1.2,1.2,1.2,1.2,1.2,25,0.25,1,0,0,0.2,0.75,34
Base,CNOU Nomad,Nomad,216323,205,1100,450,230,10.1,3.5,6,7.8,4.7,1.55,1.4,1.3,1.3,1.35,32.8,0.00096,1.3,110,999,45,45,120,6,12,1,7,4,5,,,,,,4,0,0.6,0.2,1.3,1.3,1.55,1.4,1.3,1.35,1.2,1.2,1.2,1.2,1.2,1.2,20,0.25,1,0,0,0.2,0.75,27
Base,CRUS Intrepid,Intrepid,66943,227,1225,455,255,12.6,3.8,5.7,6.5,5.6,1.4,1.3,1.35,1.3,1.4,26,0.0018,1.8,160,610,48,48,145,8,11,0.5,7,4,5,,,,,,4,0,0.6,0.2,1.35,1.35,1.4,1.3,1.3,1.4,1.2,1.2,1.2,1.2,1.2,1.2,20,0.25,1,0,0,0.2,0.75,27
Base,CRUS Spirit A1,A1 Spirit,259271,204,1130,405,212,8.3,3,4,4,3,1.3,1.3,1.35,1.3,1.3,45,0.0018,1.8,130,840,38,30,101,6.5,10,1,7,4,5,,,,,,6,0,0.7,0.2,1.35,1.35,1.3,1.3,1.3,1.3,1.2,1.2,1.2,1.2,1.2,1.2,20,0.25,1,0,0,0.9,0.75,28
Base,CRUS Spirit C1,C1 Spirit,259271,204,1130,405,212,8.3,3,4,4,3,1.3,1.3,1.35,1.3,1.3,45,0.0018,1.8,130,840,38,30,101,6.5,10,1,7,4,5,,,,,,6,0,0.7,0.2,1.35,1.35,1.3,1.3,1.3,1.3,1.2,1.2,1.2,1.2,1.2,1.2,20,0.25,1,0,0,0.9,0.75,28
Base,CRUS Star Runner,Mercury Star Runner,680575,217,1300,510,218,6.2,3.1,2.6,3.1,2.6,1.7,1.2,1.35,1.3,1.2,100,0,3.2,210,999,25,23,53,1.95,4.15,1,7,4,5,,,,,,6,0,1.5,0.2,1.35,1.35,1.7,1.2,1.3,1.2,1.2,1.2,1.2,1.2,1.2,1.2,20,0.25,1,0,0,0.9,0.75,28
Base,CRUS Starfighter,Ares Star Fighter Ion,325001,205,1050,385,210,7.8,2.9,4.5,4.5,3.5,1.3,1.25,1.35,1.3,1.3,45,0,1.8,140,999,36,36,105,2.89,7.8,1,7,4,5,,,,,,6,0,0.6,0.2,1.35,1.35,1.3,1.25,1.3,1.3,1.2,1.2,1.2,1.2,1.2,1.2,20,0.25,1,0,0,0.7,0.75,27
Base,CRUS Starfighter Inferno,Ares Star Fighter Inferno,325001,205,1050,385,210,7.8,2.9,4.5,4.5,3.5,1.3,1.25,1.35,1.3,1.3,45,0,1.8,140,999,36,36,105,2.89,7.8,1,7,4,5,,,,,,6,0,0.6,0.2,1.35,1.35,1.3,1.25,1.3,1.3,1.2,1.2,1.2,1.2,1.2,1.2,20,0.25,1,0,0,0.7,0.75,27
Base,CRUS Starlifter,C2 Hercules Starlifter,2339240,160,950,320,170,4.4,1.7,2.1,2.2,2.2,1.5,1.2,1.35,1.3,1.2,132,0,6.6,70,999,20,18,30,3,10,1,7,4,5,,,,,,8,0,2,0.2,1.35,1.35,1.5,1.2,1.3,1.2,1.5,1.5,2,1.5,2,1.5,20,0.25,1,0,0,1.1,0.75,28
Base,CRUS Starlifter A2,A2 Hercules Starlifter,2339240,160,950,320,170,4.4,1.7,2.1,2.2,2.2,1.5,1.2,1.35,1.3,1.2,132,0,6.6,70,999,20,18,30,3,10,1,7,4,5,,,,,,8,0,2,0.2,1.35,1.35,1.5,1.2,1.3,1.2,1.5,1.5,2,1.5,2,1.5,20,0.25,1,0,0,1.1,0.75,28
Base,CRUS Starlifter M2,M2 Hercules Starlifter,2339240,160,950,320,170,4.4,1.7,2.1,2.2,2.2,1.5,1.2,1.35,1.3,1.2,132,0,6.6,70,999,20,18,30,3,10,1,7,4,5,,,,,,8,0,2,0.2,1.35,1.35,1.5,1.2,1.3,1.2,1.5,1.5,2,1.5,2,1.5,20,0.25,1,0,0,1.1,0.75,28
Base,DRAK Buccaneer,Buccaneer,36527,240,1400,600,260,15,3.4,4.4,6,3.4,1.7,1.3,1.35,1.35,1.35,7.5,0,1.3,60,150,49,42,155,3,10.25,0.15,7,4,5,,,,,,4,0,0.4,0.2,1.35,1.35,1.7,1.3,1.35,1.35,1.2,1.2,1.2,1.2,1.2,1.2,25,0.25,1,0,0,0.4,0.75,34
Base,DRAK Caterpillar,Caterpillar,1508063,130,900,300,120,3.8,1.5,2.5,2.5,1.5,1.35,1.4,1.3,1.4,1.3,250.5,0.003,8.6,270,999,16,16,25,12,10,1,7,4,5,,,,,,8,0,2,0.2,1.3,1.3,1.35,1.4,1.4,1.3,1.2,1.2,1.2,1.2,1.2,1.2,20,0.25,1,0,0,1.3,0.75,28
Base,DRAK Clipper,Clipper,130562,205,1000,405,230,8.9,3.4,5.5,5.4,4.4,1.4,1.3,1.35,1.3,1.3,15,0.0018,1.7,70,280,38,38,125,6,8,0.45,7,4,5,,,,,,6,0,1.2,0.2,1.35,1.35,1.4,1.3,1.3,1.3,1.2,1.2,1.2,1.2,1.2,1.2,20,0.1,1,0,0,0.9,0.75,28
Base,DRAK Command Module,Command Module,120677,200,950,350,220,4.9,3.7,3.9,3.9,3.4,1.4,1.35,1.3,1.3,1.3,18,0.0009,1.7,130,500,25,25,80,12,10,0.6,7,4,5,,,,,,4,0,0.6,0.2,1.3,1.3,1.4,1.35,1.3,1.3,1.2,1.2,1.2,1.2,1.2,1.2,20,0.25,1,0,0,0.2,0.75,27
Base,DRAK Corsair,Corsair,380456,190,1025,390,205,5.1,2,2,2.6,2.1,1.5,1.2,1.35,1.3,1.2,116,0.00324,5.2,330,999,26,20,44,3,10,1,7,4,5,,,,,,6,0,1.5,0.2,1.35,1.35,1.5,1.2,1.3,1.2,1.2,1.2,1.2,1.2,1.2,1.2,20,0.25,1,0,0,0.9,0.75,28
Base,DRAK Cutlass Black,Cutlass Black,242177,217,1150,465,230,10.3,3.8,8,8.2,4.1,1.5,1.4,1.35,1.3,1.4,36,0.0012,1.8,100,670,39,35,110,3,10.5,0.3,7,4,5,,,,,,6,0.15,0.6,0.2,1.35,1.35,1.5,1.4,1.3,1.4,1.2,1.2,1.2,1.2,1.2,1.2,2800,0.25,20,1,0.1,0.7,100,29
Base,DRAK Cutlass Blue,Cutlass Blue,222300,220,1165,467,230,10.3,3.8,8,8.3,4.1,1.5,1.4,1.35,1.3,1.4,36,0.0012,1.8,110,670,38,34,110,3,10.5,0.3,7,4,5,,,,,,6,0.15,0.6,0.2,1.35,1.35,1.5,1.4,1.3,1.4,1.2,1.2,1.2,1.2,1.2,1.2,2800,0.25,20,1,0.1,0.7,100,29
Base,DRAK Cutlass Red,Cutlass Red,222300,212,1125,460,230,10.3,3.8,8,8.3,4.2,1.5,1.4,1.35,1.3,1.4,36,0.0012,1.8,110,670,37,32,107,3,10.5,0.3,7,4,5,,,,,,6,0.15,0.6,0.2,1.35,1.35,1.5,1.4,1.3,1.4,1.2,1.2,1.2,1.2,1.2,1.2,2800,0.25,20,1,0.1,0.7,100,29
Base,DRAK Cutlass Steel,Cutlass Steel,242177,200,1100,420,240,9.7,3.3,3.9,5.4,5.9,1.5,1.4,1.2,1.3,1.4,36,0.0012,1.8,120,670,35,30,100,3,10.5,0.3,7,4,5,,,,,,6,0,1.2,0.2,1.2,1.2,1.5,1.4,1.3,1.4,1.2,1.2,1.2,1.2,1.2,1.2,20,0.1,1,0,0,0.9,0.75,28
Base,DRAK Cutter,Cutter,81677,180,1010,380,160,8.4,3.1,6.6,5.2,3.6,1.4,1.35,1.3,1.3,1.3,12,0.0009,1.1,90,340,36,36,100,12,10,1,7,4,5,,,,,,4,0,0.6,0.2,1.3,1.3,1.4,1.35,1.3,1.3,1.2,1.2,1.2,1.2,1.2,1.2,20,0.25,1,0,0,0.2,0.75,27
Base,DRAK Cutter Expo,Cutter Rambler,81677,180,1010,380,160,8.4,3.1,6.6,5.2,3.6,1.4,1.35,1.3,1.3,1.3,24,0.0009,2.2,180,670,36,36,100,12,10,1,7,4,5,,,,,,4,0,0.6,0.2,1.3,1.3,1.4,1.35,1.3,1.3,1.2,1.2,1.2,1.2,1.2,1.2,20,0.25,1,0,0,0.2,0.75,27
Base,DRAK Cutter Scout,Cutter Scout,87677,180,1010,380,160,7.8,2.9,5.8,4.8,3.4,1.4,1.35,1.3,1.3,1.3,12,0.0009,1.1,90,340,36,36,100,12,10,1,7,4,5,,,,,,6,0,0.6,0.2,1.3,1.3,1.4,1.35,1.3,1.3,1.2,1.2,1.2,1.2,1.2,1.2,20,0.25,1,0,0,0.2,0.75,27
Gravlev,DRAK Dragonfly,Dragonfly,5600,190,523,270,120,2.4,2.1,1.5,1.9,1.9,1.35,1.35,1.3,1.2,1.2,1.5,0,0,46,49,70,70,130,3,7,1,7,4,5,190,40,1,5,2,2,0.15,0,0.2,1.3,1.3,1.35,1.35,1.2,1.2,1.2,1.2,1.2,1.2,1.2,1.2,20,0.2,2,0,0,3.5,1.25,20
Base,DRAK Golem,Golem,69217,203,1010,280,210,9.7,4.4,5.8,6.8,3.9,1.55,1.4,1.3,1.3,1.35,24,0.0009,0.95,70,610,43,43,140,3,7,0.45,7,4,5,,,,,,4,0,0.6,0.2,1.3,1.3,1.55,1.4,1.3,1.35,1.2,1.2,1.2,1.2,1.2,1.2,20,0.25,1,0,0,0.2,0.75,27
Base,DRAK Golem OX,Golem OX,76217,200,1000,280,210,9.7,4.3,5.8,6.8,3.8,1.55,1.4,1.3,1.3,1.35,24,0.0009,1.1,70,610,40,40,135,3,7,0.25,7,4,5,,,,,,4,0,0.6,0.2,1.3,1.3,1.55,1.4,1.3,1.35,1.2,1.2,1.2,1.2,1.2,1.2,20,0.25,1,0,0,0.2,0.75,27
Base,DRAK Herald,Herald,62205,245,1450,670,260,16.2,4.2,4.3,5.7,3.3,1.8,1.3,1.35,1.35,1.35,10.5,0,1.3,80,320,47,40,150,2.25,9.5,0.35,7,4,5,,,,,,4,0,0.4,0.2,1.35,1.35,1.8,1.3,1.35,1.35,1.2,1.2,1.2,1.3,1.2,1.2,20,0.25,1,0,0,0.4,0.75,27
Base,DRAK Vulture,Vulture,182983,200,1100,350,240,5.6,3,4.1,4.1,3,1.3,1.4,1.35,1.4,1.35,36,0.0012,1.1,195,999,55,55,125,12,10,0.35,7,4,5,,,,,,4,0,0.6,0.2,1.35,1.35,1.3,1.4,1.4,1.35,1.2,1.2,1.2,1.2,1.2,1.2,20,0.25,1,0,0,1.1,0.75,28
Base,ESPR Prowler,Prowler,148900,212,1200,450,240,9.1,3,4.1,5.1,5.1,1.5,1.4,1.2,1.3,1.4,39,0,2,180,720,38,32,110,6,12,0.6,7,4,5,,,,,,6,0,1.2,0.2,1.2,1.2,1.5,1.4,1.3,1.4,1.2,1.2,1.2,1.2,1.2,1.2,20,0.1,1,0,0,0.9,0.75,28
Base,ESPR Prowler Utility,Prowler Utility,171700,208,1110,437,240,8.2,3,3.6,4.6,4.6,1.5,1.4,1.2,1.3,1.4,43,0,2.25,195,800,35,30,100,6,12,0.6,7,4,5,,,,,,6,0,1.2,0.2,1.2,1.2,1.5,1.4,1.3,1.4,1.2,1.2,1.2,1.2,1.2,1.2,20,0.1,1,0,0,0.9,0.75,28
Base,ESPR Talon,Talon,46242,225,1190,500,260,13.1,4.2,9.7,6.9,5.2,1.55,1.4,1.3,1.3,1.35,8,0,1.1,55,220,68,54,195,6,12,0.25,7,4,5,,,,,,4,0,0.6,0.2,1.3,1.3,1.55,1.4,1.3,1.35,1.2,1.2,1.2,1.2,1.2,1.2,20,0.25,1,0,0,0.2,0.75,27
Base,ESPR Talon Shrike,Talon Shrike,46242,225,1190,500,260,13.5,4.4,10.1,7.1,5.3,1.55,1.4,1.3,1.3,1.35,8,0,1.1,55,220,68,54,195,6,12,0.25,7,4,5,,,,,,4,0,0.6,0.2,1.3,1.3,1.55,1.4,1.3,1.35,1.2,1.2,1.2,1.2,1.2,1.2,20,0.25,1,0,0,0.2,0.75,27
Base,GAMA Syulen,Syulen,77877,225,1175,450,230,9.2,4.1,9.2,9.2,5.1,1.55,1.4,1.3,1.3,1.3,40,0,1.1,195,670,42,42,135,8,11,0.25,7,4,5,,,,,,4,0,0.6,0.2,1.3,1.3,1.55,1.4,1.3,1.3,1.2,1.2,1.2,1.2,1.2,1.2,20,0.25,1,0,0,0.2,0.75,27
Base,GLSN Shiv,Shiv,206577,219,1175,479,230,10.4,3.7,6.4,6.4,3.9,1.5,1.4,1.35,1.3,1.4,32,0.0012,1.65,90,690,50,42,137,3,10.5,0.35,7,4,5,,,,,,6,0,0.6,0.3,1.35,1.35,1.5,1.4,1.3,1.4,1.2,1.2,1.2,1.2,1.2,1.2,20,0.25,1,0,0,0.2,0.75,27
Base,Krig l21 wolf,L-21 Wolf,23350,230,1225,510,250,15,4.7,9.7,9.7,5.5,1.4,1.3,1.35,1.3,1.4,9,0,0.9,80,200,72,52,210,6,12,0.3,7,4,5,,,,,,4,0,0.6,0.2,1.35,1.35,1.4,1.3,1.3,1.4,1.2,1.2,1.2,1.2,1.2,1.2,20,0.25,1,0,0,0.2,0.75,27
Base,Krig l22 alphawolf,L-22 Alpha Wolf,23350,225,1225,500,250,14,4.7,10.2,10.2,5.5,1.4,1.3,1.35,1.3,1.4,9,0,0.9,80,200,74,54,210,6,12,0.3,7,4,5,,,,,,4,0,0.6,0.2,1.35,1.35,1.4,1.3,1.3,1.4,1.2,1.2,1.2,1.2,1.2,1.2,20,0.25,1,0,0,0.2,0.75,27
Base,KRIG P52 Merlin,P-52 Merlin,7599,275,1450,605,290,16.5,3.5,6,5.9,4.5,1.65,1.3,1.35,1.35,1.35,7,0,0,140,230,58,50,200,3,12,1,7,4,5,,,,,,4,0,0.4,0.2,1.35,1.35,1.65,1.3,1.35,1.35,1.2,1.2,1.2,1.2,1.2,1.2,25,0.25,1,0,0,0.2,0.75,34
Base,KRIG P72 Archimedes,P-72 Archimedes,7599,270,1550,620,295,16.7,3.7,6.5,6.5,4.5,1.65,1.3,1.35,1.35,1.35,7,0.00021,0,150,230,57,57,190,3,12,1,7,4,5,,,,,,4,0,0.4,0.2,1.35,1.35,1.65,1.3,1.35,1.35,1.2,1.2,1.2,1.2,1.2,1.2,25,0.25,1,0,0,0.2,0.75,34
Base,MISC Fortune,Fortune,137700,143,975,350,150,5,3.8,2.9,3.8,3.7,1.4,1.4,1.3,1.4,1.3,21,0.00078,1.8,140,530,32,32,75,5,7.5,0.4,7,4,5,,,,,,4,0,2.1,0.7,1.3,1.3,1.4,1.4,1.4,1.3,1.2,1.2,1.2,1.2,1.2,1.2,20,0.25,1,0,0,2,0.75,29
Base,MISC Freelancer,Freelancer,219396,197,1050,400,205,6,2.5,4.5,4.5,3,1.3,1.4,1.35,1.4,1.35,108,0.003,1.8,570,999,32,32,103,12,10,1,7,4,5,,,,,,6,0,0.6,0.2,1.35,1.35,1.3,1.4,1.4,1.35,1.2,1.2,1.2,1.2,1.2,1.2,20,0.25,1,0,0,0.7,0.75,27
Base,MISC Freelancer DUR,Freelancer DUR,222418,200,1100,403,205,6.5,2.5,4.4,4.5,3,1.3,1.4,1.35,1.4,1.35,140,0.003,2.4,720,999,32,32,103,12,10,1,7,4,5,,,,,,6,0,0.6,0.2,1.35,1.35,1.3,1.4,1.4,1.35,1.2,1.2,1.2,1.2,1.2,1.2,20,0.25,1,0,0,0.7,0.75,27
Base,MISC Freelancer MAX,Freelancer MAX,341408,195,1025,395,205,6,2.5,3,3,2.5,1.3,1.4,1.35,1.4,1.35,58.5,0.003,1.8,195,999,30,30,95,12,10,1,7,4,5,,,,,,6,0,0.6,0.2,1.35,1.35,1.3,1.4,1.4,1.35,1.2,1.2,1.2,1.2,1.2,1.2,20,0.25,1,0,0,0.7,0.75,27
Base,MISC Freelancer MIS,Freelancer MIS,223553,204,1000,410,205,7.5,3,4.6,4.6,4,1.3,1.4,1.35,1.4,1.35,58,0.003,1.8,300,999,35,31,107,12,10,1,7,4,5,,,,,,6,0,0.6,0.2,1.35,1.35,1.3,1.4,1.4,1.35,1.2,1.2,1.2,1.2,1.2,1.2,20,0.25,1,0,0,0.7,0.75,27
Base,MISC Fury,Fury,13939,230,1263,550,260,13,4.5,10,10.8,10.8,1.55,1.4,1.3,1.3,1.3,2.75,0,0,47,95,69,69,215,3.15,11,1,7,4,5,,,,,,4,0,0.6,0.2,1.3,1.3,1.55,1.4,1.3,1.3,1.2,1.2,1.2,1.2,1.2,1.2,20,0.25,1,0,0,0.2,0.75,27
Base,MISC Fury LX,Fury LX,12832,900,1280,1280,900,16.5,4.5,12.3,12.9,12.9,1.55,1.35,1.35,1.35,1.35,2.75,0,0,40,76,72,72,230,3.15,11,1,7,4,5,,,,,,4,0,0.4,0.2,1.35,1.35,1.55,1.35,1.35,1.35,1.2,1.2,1.2,1.2,1.2,1.2,25,0.25,1,0,0,0.2,0.75,34
Base,MISC Fury MX,Fury MX,13939,230,1263,550,260,13,4.5,10,10.8,10.8,1.55,1.4,1.3,1.3,1.3,2.75,0,0,46,95,69,69,215,3.15,11,1,7,4,5,,,,,,4,0,0.6,0.2,1.3,1.3,1.55,1.4,1.3,1.3,1.2,1.2,1.2,1.2,1.2,1.2,20,0.25,1,0,0,0.2,0.75,27
Base,MISC Hull A,Hull A,107050,185,1050,385,195,7.4,4,4.4,4.4,4,1.4,1.4,1.3,1.4,1.3,16.4,0.00042,1.8,110,440,42,42,100,10,7.5,1,7,4,5,,,,,,4,0,2,0.7,1.3,1.3,1.4,1.4,1.4,1.3,1.2,1.2,1.2,1.2,1.2,1.2,20,0.25,1,0,0,1.1,0.75,28
Base,MISC Hull B,Hull B,472368,145,960,340,180,5.6,3.4,3.5,3.5,2.4,1.4,1.4,1.3,1.4,1.3,210,0.0009,5.7,450,999,33,33,90,3,7,0.8,7,4,5,,,,,,4,0,2,0.7,1.3,1.3,1.4,1.4,1.4,1.3,1.2,1.2,1.2,1.2,1.2,1.2,20,0.25,1,0,0,1.1,0.75,28
Base,MISC Hull C,Hull C,726530,110,890,290,100,3,2.2,0.8,2.2,2.2,1.35,1.4,1.3,1.4,1.3,877,0.003,8.6,999,999,16,16,25,12,10,1,7,4,5,,,,,,8,0,2,0.2,1.3,1.3,1.35,1.4,1.4,1.3,1.2,1.2,1.2,1.2,1.2,1.2,20,0.25,1,0,0,1.1,0.75,28
Base,MISC Prospector,Prospector,122096,156,994,371,160,5,3.8,3,3.5,3.5,1.4,1.4,1.3,1.4,1.3,21,0.00078,1.8,150,650,35,35,75,5,7.5,1,7,4,5,,,,,,6,0,2.1,0.7,1.3,1.3,1.4,1.4,1.4,1.3,1.2,1.2,1.2,1.2,1.2,1.2,20,0.25,1,0,0,1.1,0.75,28
Base,MISC Razor,Razor,10861,265,1450,595,290,16.5,3.6,7,7,4.5,1.65,1.3,1.35,1.35,1.35,3,0,1,58,104,59,52,205,3,14,1,7,4,5,,,,,,4,0,0.4,0.2,1.35,1.35,1.65,1.3,1.35,1.35,1.2,1.2,1.2,1.2,1.2,1.2,20,0.25,1,0,0,0.2,0.75,27
Base,MISC Razor EX,Razor EX,10860,265,1450,595,290,16.5,3.6,7,6.9,4.5,1.65,1.3,1.35,1.35,1.35,3,0,1,58,104,59,52,205,3,14,1,7,4,5,,,,,,4,0,0.4,0.2,1.35,1.35,1.65,1.3,1.35,1.35,1.2,1.2,1.2,1.2,1.2,1.2,20,0.25,1,0,0,0.2,0.75,27
Base,MISC Razor LX,Razor LX,11701,275,1525,490,290,17,3.6,8,8,4.5,1.65,1.3,1.35,1.35,1.35,3,0,1,58,104,62,62,205,3,14,1,7,4,5,,,,,,4,0,0.4,0.2,1.35,1.35,1.65,1.3,1.35,1.35,1.2,1.2,1.2,1.2,1.2,1.2,25,0.25,1,0,0,0.2,0.75,34
Base,MISC Reliant Kore,Reliant Kore,35153,218,1150,480,250,11.6,5.2,7.9,7.9,7.9,1.55,1.4,1.33,1.3,1.35,10.5,0.00048,1.3,120,330,54,43,140,3,10.4,1,7,4,5,,,,,,4,0,0.6,0.2,1.33,1.33,1.55,1.4,1.3,1.35,1.2,1.2,1.2,1.2,1.2,1.2,20,0.25,1,0,0,0.5,0.75,27
Base,MISC Reliant Mako,Reliant Mako,35153,220,1150,480,250,11.3,5.5,7.9,7.9,7.9,1.55,1.4,1.33,1.3,1.35,10.5,0.00024,1.3,120,320,54,43,138,3,10.4,1,7,4,5,,,,,,4,0,0.6,0.2,1.33,1.33,1.55,1.4,1.3,1.35,1.2,1.2,1.2,1.2,1.2,1.2,20,0.25,1,0,0,0.5,0.75,27
Base,MISC Reliant Sen,Reliant Sen,35153,220,1150,480,250,11.3,5.5,7.9,7.9,7.9,1.55,1.4,1.33,1.3,1.35,10.5,0.00024,1.8,120,320,54,43,138,3,10.4,1,7,4,5,,,,,,4,0,0.6,0.2,1.33,1.33,1.55,1.4,1.3,1.35,1.2,1.2,1.2,1.2,1.2,1.2,20,0.25,1,0,0,0.5,0.75,27
Base,MISC Reliant Tana,Reliant Tana,34968,222,1150,480,250,11.8,6.3,8.4,8.4,8.4,1.55,1.4,1.33,1.3,1.35,7.5,0,1.3,80,230,58,45,155,3,10.4,1,7,4,5,,,,,,4,0,0.6,0.2,1.33,1.33,1.55,1.4,1.3,1.35,1.2,1.2,1.2,1.2,1.2,1.2,20,0.25,1,0,0,0.5,0.75,27
Base,MISC Starfarer,Starfarer,3466606,106,845,295,106,2.6,1.4,1.5,2.1,2,1.35,1.4,1.3,1.4,1.3,652.2,0.0132,8.6,570,999,23,23,45,12,10,1,7,4,5,,,,,,8,0,2.1,0.7,1.3,1.3,1.35,1.4,1.4,1.3,1.2,1.2,1.2,1.2,1.2,1.2,20,0.1,1,0,0,1.1,0.75,28
Base,MISC Starfarer Gemini,Starfarer Gemini,3494690,106,845,295,106,2.6,1.4,1.5,2.1,2,1.35,1.4,1.3,1.4,1.3,652.2,0.006,8.6,570,999,23,23,45,12,10,1,7,4,5,,,,,,8,0,2.1,0.7,1.3,1.3,1.35,1.4,1.4,1.3,1.2,1.2,1.2,1.2,1.2,1.2,20,0.1,1,0,0,1.1,0.75,28
Base,MISC Starlancer,Starlancer MAX,498071,160,990,325,165,3.2,1.7,2,2.4,2.4,1.35,1.4,1.3,1.4,1.3,50,0.003,3.6,90,910,31,31,65,12,10,1.5,7,4,5,,,,,,6,0,2,0.2,1.3,1.3,1.35,1.4,1.4,1.3,1.2,1.2,1.2,1.2,1.2,1.2,20,0.25,1,0,0,3,0.75,30
Base,MISC Starlancer TAC,Starlancer TAC,738071,150,960,315,155,2.9,1.6,1.8,2.1,2.1,1.35,1.4,1.3,1.4,1.3,48,0.003,3.35,80,940,27,27,60,12,10,1.8,7,4,5,,,,,,6,0,2,0.2,1.3,1.3,1.35,1.4,1.4,1.3,1.2,1.2,1.2,1.2,1.2,1.2,20,0.25,1,0,0,3,0.75,30
Base,MRAI Guardian,Guardian,113100,213,1125,465,225,10.1,3.8,8.2,8.2,8.2,1.5,1.4,1.35,1.3,1.4,9,0.0018,1.8,56,230,45,45,130,10,10,0.2,7,4,5,,,,,,10,0,0.6,0.3,1.35,1.35,1.5,1.4,1.3,1.4,1.2,1.2,1.2,1.2,1.2,1.2,20,0.1,1,0,0,0.7,0.75,27
Base,MRAI Guardian MX,Guardian MX,123540,208,1100,455,221,9.1,3.5,6.8,6.8,6.8,1.5,1.4,1.35,1.3,1.4,9,0.0018,1.8,58,230,39,39,120,10,10,0.2,7,4,5,,,,,,10,0,0.6,0.3,1.35,1.35,1.5,1.4,1.3,1.4,1.2,1.2,1.2,1.2,1.2,1.2,20,0.1,1,0,0,0.7,0.75,27
Base,MRAI Guardian QI,Guardian QI,113100,210,1100,460,223,10.3,3.8,8.2,8.2,8.2,1.5,1.4,1.35,1.3,1.4,9,0.0018,1.8,56,230,42,42,125,10,10,0.2,7,4,5,,,,,,10,0,0.6,0.3,1.35,1.35,1.5,1.4,1.3,1.4,1.2,1.2,1.2,1.2,1.2,1.2,20,0.1,1,0,0,0.7,0.75,27
Gravlev,MRAI Pulse,Pulse,2140,204,561,284,124,2.7,2.4,1.3,1.9,1.9,1.3,1.3,1.3,1.2,1.2,0.65,0,0,18,19,84,84,135,3,7,1,7,4,5,204,55,1,3,2.5,2,0.15,0,0.2,1.3,1.3,1.3,1.3,1.2,1.2,1.2,1.2,1.2,1.2,1.2,1.2,15,0.2,2,0,0,2,2,10
Gravlev,MRAI Pulse LX,Pulse LX,2140,218,600,298,138,2.9,2.5,1.5,2.2,2.2,2.3,1.2,1.8,1.2,1.2,0.65,0,0,17,18,97,97,145,3,7,1,7,4,5,218,80,1,3,3,2,0.15,0,0.2,1.8,1.8,2.3,1.2,1.2,1.2,1.2,1.2,1.2,1.2,1.2,1.2,10,0.2,4,0,0,1,4,4
Base,ORIG 100i,100i,45143,223,1230,610,290,11.9,3.6,5.5,5.5,4.7,1.55,1.4,1.3,1.3,1.35,6.5,0.0018,1.3,60,230,60,52,155,3,7,0.4,7,4,5,,,,,,4,0,0.4,0.2,1.3,1.3,1.55,1.4,1.3,1.35,1.2,1.2,1.2,1.2,1.2,1.2,20,0.25,1,0,0,0.2,0.75,27
Base,ORIG 125a,125a,45143,230,1260,610,300,12.3,3.8,6.1,6.1,5.2,1.55,1.4,1.3,1.3,1.35,6.5,0.0018,1.3,58,230,65,52,150,3,7,0.4,7,4,5,,,,,,4,0,0.4,0.2,1.3,1.3,1.55,1.4,1.3,1.35,1.2,1.2,1.2,1.2,1.2,1.2,20,0.25,1,0,0,0.2,0.75,27
Base,ORIG 135c,135c,45143,220,1250,610,290,11.4,4,5.5,5.5,4.7,1.55,1.4,1.3,1.3,1.35,6.5,0.0018,1.3,60,230,60,52,150,3,7,0.4,7,4,5,,,,,,4,0,0.4,0.2,1.3,1.3,1.55,1.4,1.3,1.35,1.2,1.2,1.2,1.2,1.2,1.2,20,0.25,1,0,0,0.2,0.75,27
Base,ORIG 300i,300i,69677,258,1440,550,270,15.6,3.7,5.5,5.5,3.9,1.65,1.3,1.35,1.35,1.35,10.5,0.00072,1.3,70,390,50,46,175,7,10,1,7,4,5,,,,,,4,0.15,0.4,0.2,1.35,1.35,1.65,1.3,1.35,1.35,1.2,1.2,1.2,1.2,1.2,1.2,20,0.25,1,0,0,0.2,0.75,27
Base,ORIG 315p,315p,70592,258,1460,550,270,16,3.7,5.5,5.5,3.9,1.65,1.3,1.35,1.35,1.35,18,0.00072,1.8,110,670,50,46,175,7,10,1,7,4,5,,,,,,4,0.15,0.4,0.2,1.35,1.35,1.65,1.3,1.35,1.35,1.2,1.2,1.2,1.2,1.2,1.2,20,0.25,1,0,0,0.2,0.75,27
Base,ORIG 325a,325a,69324,260,1430,600,270,16.1,3.7,6,6,4,1.65,1.3,1.35,1.35,1.35,18,0,1.3,110,670,54,48,180,7,10,1,7,4,5,,,,,,4,0.15,0.4,0.2,1.35,1.35,1.65,1.3,1.35,1.35,1.2,1.2,1.2,1.2,1.2,1.2,20,0.25,1,0,0,0.2,0.75,27
Base,ORIG 350r,350r,78107,265,1500,490,270,16.5,4,6.4,6.5,4,1.65,1.3,1.35,1.35,1.35,27,0,1.3,150,999,56,56,180,7,10,1,7,4,5,,,,,,4,0,0.4,0.2,1.35,1.35,1.65,1.3,1.35,1.35,1.2,1.2,1.2,1.2,1.2,1.2,25,0.25,1,0,0,0.2,0.75,34
Base,ORIG 400i,400i,400457,215,1225,500,216,5.7,2.8,3.3,3.3,2.8,1.5,1.2,1.35,1.3,1.2,60,0.003,3.6,160,999,35,35,70,2.5,4.87,1,7,4,5,,,,,,6,0,1.5,0.2,1.35,1.35,1.5,1.2,1.3,1.2,1.2,1.2,1.2,1.2,1.2,1.2,20,0.25,1,0,0,0.9,0.75,28
Base,ORIG 600i,600i,1544667,165,975,325,185,4.1,2,2,3.6,2,1.5,1.2,1.35,1.3,1.2,180,0.009,5.1,195,999,19,19,30,12,14,1,7,4,5,,,,,,8,0,2,0.2,1.35,1.35,1.5,1.2,1.3,1.2,1.5,1.5,2,1.5,2,1.5,20,0.25,1,0,0,1.1,0.75,28
Base,ORIG 85X,85X Limited,18994,235,1250,560,270,14.8,4.5,10.5,10.5,5.4,1.65,1.3,1.35,1.35,1.35,4.5,0,1,59,160,75,60,220,10,14,1,7,4,5,,,,,,4,0,0.6,0.2,1.35,1.35,1.65,1.3,1.35,1.35,1.2,1.2,1.2,1.2,1.2,1.2,20,0.25,1,0,0,0.2,0.75,27
Base,ORIG 890J,890 Jump,43896159,110,915,280,115,2.5,1.5,1,2,1.5,1.5,1.2,1.35,1.3,1.2,1200,0.036,14.6,80,999,10,10,15,12,14,1,7,4,5,,,,,,10,0,2.5,0.2,1.35,1.35,1.5,1.2,1.3,1.2,1.5,1.5,2,1.5,2,1.5,20,0.25,1,0,0,4,0.75,31
Base,ORIG m50,M50 Interceptor,9772,280,1575,490,290,18.2,4,5.4,5.5,4.4,1.65,1.3,1.35,1.35,1.35,3,0,1,70,119,55,55,200,3,14.25,1,7,4,5,,,,,,4,0,0.4,0.2,1.35,1.35,1.65,1.3,1.35,1.35,1.2,1.2,1.2,1.2,1.2,1.2,25,0.25,1,0,0,0.2,0.75,34
Gravlev,ORIG X1,X1,4730,207,569,287,127,2.7,2.6,1.3,1.9,1.9,1.35,1.35,1.35,1.2,1.2,0.9,0,0,18,19,80,80,135,3,7,1,7,4,5,207,60,1,5,2.5,2,0.15,0,0.2,1.35,1.35,1.35,1.35,1.2,1.2,1.2,1.2,1.2,1.2,1.2,1.2,15,0.2,2,0,0,2,2,10
Gravlev,ORIG X1 Velocity,X1 Velocity,4730,222,611,302,142,3,2.8,1.5,2.4,2.3,2.3,1.2,2,1.2,1.2,0.9,0,0,19,20,93,93,140,3,7,1,7,4,5,222,87,1,5,3,2,0.15,0,0.2,2,2,2.3,1.2,1.2,1.2,1.2,1.2,1.2,1.2,1.2,1.2,11,0.2,4,0,0,2,4,5
Base,RSI Apollo Medivac,Apollo Medivac,630456,175,1000,340,180,4.2,2.5,3,2,2,1.4,1.4,1.3,1.4,1.3,63,0.00108,4.5,130,999,27,20,65,6,12,0.7,7,4,5,,,,,,4,0,1.2,0.2,1.3,1.3,1.4,1.4,1.4,1.3,1.2,1.2,1.2,1.2,1.2,1.2,20,0.1,1,0,0,0.9,0.75,28
Base,RSI Apollo Triage,Apollo Triage,630456,170,1025,345,180,4,2.5,2.5,2,2,1.4,1.4,1.3,1.4,1.3,63,0.00108,4.35,140,999,24,24,65,6,12,0.7,7,4,5,,,,,,4,0,1.2,0.2,1.3,1.3,1.4,1.4,1.4,1.3,1.2,1.2,1.2,1.2,1.2,1.2,20,0.1,1,0,0,0.9,0.75,28
Base,RSI Aurora CL,Aurora CL,24774,220,1150,440,240,10.3,3.9,6,6,4.6,1.4,1.3,1.35,1.3,1.4,4.5,0.0003,1.1,80,170,58,53,135,6,12,0.3,7,4,5,,,,,,4,0,0.6,0.2,1.35,1.35,1.4,1.3,1.3,1.4,1.2,1.2,1.2,1.2,1.2,1.2,20,0.1,1,0,0,0.2,0.75,27
Base,RSI Aurora ES,Aurora ES,24838,222,1180,440,240,11.1,3.9,6.9,6.9,5.1,1.4,1.3,1.35,1.3,1.4,4.5,0.0003,1.1,80,170,62,57,140,6,12,0.3,7,4,5,,,,,,4,0,0.6,0.2,1.35,1.35,1.4,1.3,1.3,1.4,1.2,1.2,1.2,1.2,1.2,1.2,20,0.1,1,0,0,0.2,0.75,27
Base,RSI Aurora LN,Aurora LN,27066,225,1200,450,240,11.8,4,7.2,7.2,5.6,1.4,1.3,1.35,1.3,1.4,4.5,0,1.1,70,170,65,59,146,6,12,0.3,7,4,5,,,,,,4,0,0.6,0.2,1.35,1.35,1.4,1.3,1.3,1.4,1.2,1.2,1.2,1.2,1.2,1.2,20,0.1,1,0,0,0.2,0.75,27
Base,RSI Aurora LX,Aurora LX,25088,222,1250,440,240,11.5,3.9,6.2,6.2,5.1,1.4,1.3,1.35,1.3,1.4,4.5,0.0003,1.8,80,170,58,53,135,6,12,0.3,7,4,5,,,,,,4,0,0.6,0.2,1.35,1.35,1.4,1.3,1.3,1.4,1.2,1.2,1.2,1.2,1.2,1.2,20,0.1,1,0,0,0.2,0.75,27
Base,RSI Aurora Mk2,Aurora Mk II,63500,225,1230,460,240,11.5,3.8,6.5,6.5,5,1.65,1.3,1.35,1.3,1.4,10,0.0003,1.5,80,310,58,52,140,12,9,0.4,7,4,5,,,,,,4,0,0.6,0.2,1.35,1.35,1.65,1.3,1.3,1.4,1.2,1.2,1.2,1.2,1.2,1.2,20,0.25,1,0,0,0.6,0.75,27
Base,RSI Aurora MR,Aurora MR,26245,227,1230,470,240,12.3,3.9,6,6,4.7,1.4,1.3,1.35,1.3,1.4,4.5,0,1.1,70,170,59,51,137,6,12,0.3,7,4,5,,,,,,4,0,0.6,0.2,1.35,1.35,1.4,1.3,1.3,1.4,1.2,1.2,1.2,1.2,1.2,1.2,20,0.1,1,0,0,0.2,0.75,27
Base,RSI Bengal,Bengal,23219,22,900,290,230,13,4.4,10,10,4.9,1.55,1.4,1.3,1.3,1.35,8,0,1.1,100,280,2,2,8,3,7,1,7,4,5,,,,,,10,0.15,0,0.2,2,2,2,2,2,2,1.2,1.2,1.2,1.2,1.2,1.2,1000,0.25,50,1,0.2,1.3,50,21
Base,RSI Constellation Andromeda,Constellation Andromeda,386857,190,1000,390,191,5.2,2.6,2.6,3.1,2.6,1.5,1.2,1.35,1.3,1.2,66,0,4.1,240,999,25,21,45,3,12,1,7,4,5,,,,,,6,0,1.5,0.2,1.35,1.35,1.5,1.2,1.3,1.2,1.2,1.2,1.2,1.2,1.2,1.2,20,0.25,1,0,0,0.9,0.75,28
Base,RSI Constellation Aquila,Constellation Aquila,406543,180,1075,380,191,5,2.5,2.6,3.2,2.6,1.5,1.2,1.35,1.3,1.2,104.5,0.006,5.6,390,999,25,21,45,3,12,1,7,4,5,,,,,,6,0,1.5,0.2,1.35,1.35,1.5,1.2,1.3,1.2,1.2,1.2,1.2,1.2,1.2,1.2,20,0.25,1,0,0,0.9,0.75,28
Base,RSI Constellation Phoenix,Constellation Phoenix,383801,185,995,385,191,5.1,2.5,2.5,3.1,2.5,1.5,1.2,1.35,1.3,1.2,66,0,4.1,240,999,25,21,45,3,12,1,7,4,5,,,,,,6,0,1.5,0.2,1.35,1.35,1.5,1.2,1.3,1.2,1.2,1.2,1.2,1.2,1.2,1.2,20,0.25,1,0,0,0.9,0.75,28
Base,RSI Constellation Taurus,Constellation Taurus,383801,180,950,380,191,5,2.5,2.6,3.2,2.6,1.5,1.2,1.35,1.3,1.2,66,0.006,4.1,225,999,25,21,45,3,12,1,7,4,5,,,,,,6,0,1.5,0.2,1.35,1.35,1.5,1.2,1.3,1.2,1.2,1.2,1.2,1.2,1.2,1.2,20,0.25,1,0,0,0.9,0.75,28
Base,RSI Hermes,Hermes,630456,180,1200,370,170,3.9,2.4,1.9,1.9,1.9,1.4,1.4,1.3,1.4,1.3,70,0.00108,4.65,170,999,26,26,60,6,12,0.7,7,4,5,,,,,,4,0,1.2,0.2,1.3,1.3,1.4,1.4,1.4,1.3,1.2,1.2,1.2,1.2,1.2,1.2,20,0.1,1,0,0,0.9,0.75,28
Base,RSI Mantis,Mantis,224923,236,1400,605,257,14.9,3.5,4.4,5.8,3.4,1.67,1.3,1.35,1.35,1.35,31.61,0,1.3,100,999,50,42,160,3,10.25,0.15,7,4,5,,,,,,4,0,0.4,0.2,1.35,1.35,1.67,1.3,1.35,1.35,1.2,1.2,1.2,1.2,1.2,1.2,20,0.25,1,0,0,0.4,0.75,27
Base,RSI Meteor,Meteor,238832,229,1405,570,235,15.3,3,4.2,5.5,3.2,1.67,1.3,1.35,1.35,1.35,28.95,0,1.15,80,999,46,38,155,3,10.25,0.15,7,4,5,,,,,,4,0,0.4,0.2,1.35,1.35,1.67,1.3,1.35,1.35,1.2,1.2,1.2,1.2,1.2,1.2,20,0.25,1,0,0,0.4,0.75,27
Base,RSI Perseus,Perseus,4037000,150,1050,350,160,5.4,1.8,1.9,1.9,1.9,1.5,1.2,1.35,1.3,1.2,400,0,7,150,999,15,15,25,3,7,0.45,7,4,5,,,,,,10,0,2,0.2,1.35,1.35,1.5,1.2,1.3,1.2,1.5,1.5,2,1.5,2,1.5,20,0.25,1,0,0,1.1,0.75,28
Base,RSI Polaris,Polaris,10427000,145,940,250,155,2.7,1.5,1.5,2,2,1.5,1.2,1.35,1.3,1.2,1100,0.0009,12.6,315,999,10,8,14,5,12,0.4,7,4,5,,,,,,10,0,1.6,0.2,1.35,1.35,1.5,1.2,1.3,1.2,1.5,1.5,2,1.5,2,1.5,20,0.25,1,0,0,1.3,0.75,28
Base,RSI Salvation,Salvation,62245,205,1150,290,230,7.6,3.8,6.5,6.4,4.4,1.55,1.4,1.3,1.3,1.35,25,0.0009,1,100,700,45,45,140,3,7,0.35,7,4,5,,,,,,4,0,0.6,0.2,1.3,1.3,1.55,1.4,1.3,1.35,1.2,1.2,1.2,1.2,1.2,1.2,20,0.1,1,0,0,0.7,0.75,27
Base,RSI Scorpius,Scorpius,91462,230,1385,590,235,14.7,3.8,4.9,4.8,3.4,1.65,1.3,1.35,1.3,1.4,13.5,0,1.8,80,540,42,34,145,12,9,1,7,4,5,,,,,,4,0,0.6,0.2,1.35,1.35,1.65,1.3,1.3,1.4,1.2,1.2,1.2,1.2,1.2,1.2,20,0.25,1,0,0,0.6,0.75,27
Base,RSI Scorpius Antares,Scorpius Antares,91462,230,1385,590,235,14.3,3.7,4.8,4.7,3.3,1.65,1.3,1.35,1.3,1.4,13.5,0,1.8,80,540,42,34,145,12,9,1,7,4,5,,,,,,4,0,0.6,0.2,1.35,1.35,1.65,1.3,1.3,1.4,1.2,1.2,1.2,1.2,1.2,1.2,20,0.25,1,0,0,0.6,0.75,27
Better Handling,RSI Scorpius Antares Flight Blade HND,Scorpius Antares ,68391,222,1360,580,225,11.5,4,7,7,4,1.55,1.4,1.35,1.3,1.35,22,0,1.3,210,760,43,35,147,12,9,1,7,4,5,,,,,,4,0,0.6,0.2,1.35,1.35,1.65,1.3,1.3,1.4,1.2,1.2,1.2,1.2,1.2,1.2,20,0.25,1,0,0,0.6,0.75,27
Better Speed,RSI Scorpius Antares Flight Blade SPD,Scorpius Antares ,68391,238,1410,600,245,11.5,4,7,7,4,1.55,1.4,1.35,1.3,1.35,22,0,1.3,210,760,41,33,143,12,9,1,7,4,5,,,,,,4,0,0.6,0.2,1.35,1.35,1.65,1.3,1.3,1.4,1.2,1.2,1.2,1.2,1.2,1.2,20,0.25,1,0,0,0.6,0.75,27
Better Handling,RSI Scorpius Flight Blade HND,Scorpius ,91462,222,1360,580,225,14.3,3.7,4.8,4.7,3.3,1.65,1.3,1.35,1.3,1.4,13.5,0,1.8,80,540,43,35,147,12,9,1,7,4,5,,,,,,4,0,0.6,0.2,1.35,1.35,1.65,1.3,1.3,1.4,1.2,1.2,1.2,1.2,1.2,1.2,20,0.25,1,0,0,0.6,0.75,27
Better Speed,RSI Scorpius Flight Blade SPD,Scorpius ,91462,238,1410,600,245,14.3,3.7,4.8,4.7,3.3,1.65,1.3,1.35,1.3,1.4,13.5,0,1.8,80,540,41,33,143,12,9,1,7,4,5,,,,,,4,0,0.6,0.2,1.35,1.35,1.65,1.3,1.3,1.4,1.2,1.2,1.2,1.2,1.2,1.2,20,0.25,1,0,0,0.6,0.75,27
Base,RSI Zeus,Zeus,276600,200,1000,400,210,7.8,2.6,3.1,3.1,2.7,1.3,1.25,1.35,1.3,1.3,66.5,0.0018,1.8,225,999,32.5,32.5,110,6.5,10,0.45,7,4,5,,,,,,4,0,0.7,0.5,1.35,1.35,1.3,1.25,1.3,1.3,1.2,1.2,1.2,1.2,1.2,1.2,20,0.25,1,0,0,0.9,0.75,28
Base,RSI Zeus CL,Zeus CL,276600,200,1000,400,210,7.8,2.6,3.1,3.1,2.7,1.3,1.25,1.35,1.3,1.3,66.5,0.0018,1.8,225,999,32,32,105,6.5,10,0.45,7,4,5,,,,,,6,0,0.7,0.5,1.35,1.35,1.3,1.25,1.3,1.3,1.2,1.2,1.2,1.2,1.2,1.2,20,0.25,1,0,0,0.9,0.75,28
Base,RSI Zeus ES,Zeus ES,276600,205,1100,405,210,8.5,2.6,3,3,2.7,1.3,1.25,1.35,1.3,1.3,93.1,0.0018,2.6,300,999,32,32,110,6.5,10,0.45,7,4,5,,,,,,6,0,0.7,0.5,1.35,1.35,1.3,1.25,1.3,1.3,1.2,1.2,1.2,1.2,1.2,1.2,20,0.25,1,0,0,0.9,0.75,28
Base,VNCL Blade,Blade,23219,227,1191,500,260,13,4.4,10,10,4.9,1.55,1.4,1.3,1.3,1.35,8,0,1.1,100,280,70,52,195,6,10.4,0.2,7,4,5,,,,,,4,0,0.6,0.2,1.3,1.3,1.55,1.4,1.3,1.35,1.2,1.2,1.2,1.2,1.2,1.2,20,0.25,1,0,0,0.2,0.75,27
Base,VNCL Glaive,Glaive,76520,218,1150,480,230,10.5,4,7.7,7.7,4.5,1.55,1.4,1.35,1.3,1.35,9,0,1.3,70,310,60,43,155,3,12,0.2,7,4,5,,,,,,4,0,0.6,0.2,1.35,1.35,1.55,1.4,1.3,1.35,1.2,1.2,1.2,1.2,1.2,1.2,20,0.1,1,0,0,0.5,0.75,27
Base,VNCL Mauler,Mauler,18700,140,850,270,150,0,0,0,0,0,0,0,0,0,0,0,0,0,0,0,3.5,3.5,7.5,3,7,0.25,7,4,5,,,,,,4,0,0.6,0.2,1.35,1.35,1.5,1.4,1.3,1.4,1.2,1.2,1.2,1.2,1.2,1.2,20,0.1,1,0,0,0.7,0.75,27
Base,VNCL Scythe,Scythe,68391,222,1150,480,230,11.5,4,7,7,4,1.55,1.4,1.35,1.3,1.35,22,0,1.3,210,760,56,52,147,3,12,0.2,7,4,5,,,,,,4,0.15,0.6,0.2,1.35,1.35,1.55,1.4,1.3,1.35,1.2,1.2,1.2,1.2,1.2,1.2,20,0.1,1,0,0,0.5,0.75,27
Base,VNCL Stinger,Stinger,248552,207,1050,440,230,8,2.7,5,5,4.5,1.5,1.4,1.35,1.3,1.4,36,0.0036,1.35,120,979.9833333,34,28,95,3,7,0.25,7,4,5,,,,,,4,0,0.6,0.2,1.35,1.35,1.5,1.4,1.3,1.4,1.2,1.2,1.2,1.2,1.2,1.2,20,0.1,1,0,0,0.7,0.75,27
Gravlev,XIAN Nox,Nox,4230,225,619,305,145,3.1,2.7,1.4,2.5,2.3,2.3,1.2,1.7,1.2,1.2,1.5,0.00006,0,41,44,89,89,138,3,7,1,7,4,5,225,78,1,5,3,2,0.15,0,0.2,1.7,1.7,2.3,1.2,1.2,1.2,1.2,1.2,1.2,1.2,1.2,1.2,10,0.2,4,0,0,1,4,4
Base,XIAN Scout,Khartu-al,68351,224,1183,504,254,12,4.4,12,12,12,1.4,1.35,1.4,1.4,1.4,26,0.00174,1.1,510,999,67,67,210,6,12,0.35,7,4,5,,,,,,4,0,0.6,0.3,1.4,1.4,1.4,1.35,1.4,1.4,1.2,1.2,1.2,1.2,1.2,1.2,20,0.25,1,0,0,0.5,0.75,27
Base,XNAA SanTokYai,San'tok.yāi,84224,227,1161,493,225,12,10.9,12.3,10,10,1.55,1.4,1.35,1.35,1.35,14.7,0.00174,1.3,120,410,58,58,160,3,10.5,0.2,7,4,5,,,,,,4,0,0.6,0.3,1.35,1.35,1.55,1.4,1.35,1.35,1.2,1.2,1.2,1.2,1.2,1.2,20,0.25,1,0,0,0.5,0.75,27
