Ship_Size,Ship_Name,Ship_Manufacturer,Ship_Type,Ship_Career,Ship_Role,Length,Width,Height,Mass,SCM,Boost FWD,NAV,Pitch,Yaw,Roll,Boost_Pitch,Boost_Yaw,Boost_Roll,Main,Retro,Strafe,Up,Down,Boost_Main,Boost_Retro,Boost_Strafe,Boost_Up,Boost_Down,Hydrogen,Scoop_per_Min,Quantum,Flight_Time_Min,Flight_Time_Max,Fuse_Hull_Pen_Dmg_Mod,Component_Hull_Dmg_Mod,Armor_HP,Armor_Deflection_Threshold_Physical,Armor_Deflection_Threshold_Energy,Armor_Deflection_Threshold_Distortion,Armor_Damage_Mod_Phys,Armor_Dmg_Mod_Engy,Armor_Dmg_Mod_Dist
1,85X Limited,Origin,Ship,Exploration,Touring,13,10,2,18 994,235,560,1 250,75,60,220,90,72,264,14.8,4.5,10.5,10.5,5.4,1.65,1.3,1.35,1.35,1.35,4.5,,1,59min,160min,0.7,0.4,3000,9,7,0,0.85,0.7,1
1,100i,Origin,Ship,Exploration,Starter / Pathfinder,19,11,4,45 143,223,610,1 230,60,52,155,72,62,186,11.9,3.6,5.5,5.5,4.7,1.55,1.4,1.3,1.3,1.35,6.5,0.0018,1.3,60min,230min,0,0.4,2400,9,7,0,0.75,0.6,1
1,125a,Origin,Ship,Combat,Light Fighter,19,11,4,45 143,230,610,1 260,65,52,150,78,62,180,12.3,3.8,6.1,6.1,5.2,1.55,1.4,1.3,1.3,1.35,6.5,0.0018,1.3,58min,230min,0,0.4,2400,9,7,0,0.75,0.6,1
1,135c,Origin,Ship,Transporter,Light Freight,19,11,4,45 143,220,610,1 250,60,52,150,72,62,180,11.4,4,5.5,5.5,4.7,1.55,1.4,1.3,1.3,1.35,6.5,0.0018,1.3,60min,230min,0,0.4,2400,9,7,0,0.75,0.6,1
2,300i,Origin,Ship,Exploration,Luxury Touring,27,17,8,69 677,258,550,1 440,50,46,175,60,55,210,15.6,3.7,5.5,5.5,3.9,1.65,1.3,1.35,1.35,1.35,10.5,0.00072,1.3,70min,390min,0.7,0.5,2400,9,7,0,0.8,0.65,1
2,315p,Origin,Ship,Exploration,Pathfinder,27,17,8,70 592,258,550,1 460,50,46,175,60,55,210,16,3.7,5.5,5.5,3.9,1.65,1.3,1.35,1.35,1.35,18,0.00072,1.8,110min,670min,0.7,0.5,2400,9,7,0,0.8,0.65,1
2,325a,Origin,Ship,Combat,Interceptor,27,17,8,69 324,260,600,1 430,54,48,180,65,58,216,16.1,3.7,6,6,4,1.65,1.3,1.35,1.35,1.35,18,,1.3,110min,670min,0.7,0.5,2400,9,7,0,0.8,0.65,1
2,350r,Origin,Ship,Competition,Racing,27,17,8,78 107,265,490,1 500,56,56,180,67,67,216,16.5,4,6.4,6.5,4,1.65,1.3,1.35,1.35,1.35,27,,1.3,150min,999min+,0.7,0.5,2400,9,7,0,0.8,0.65,1
4,400i,Origin,Ship,Exploration,Expedition,56,32,12.5,400 457,215,500,1 225,35,35,70,42,42,84,5.7,2.8,3.3,3.3,2.8,1.5,1.2,1.35,1.3,1.2,60,0.003,3.6,160min,999min+,0.7,0.6,12600,63,50,0,0.75,0.6,1
5,600i,Origin,Ship,Exploration,Expedition,91.5,52,17,1 544 667,165,325,975,19,19,30,29,29,60,4.1,2,2,3.6,2,1.5,1.2,1.35,1.3,1.2,180,0.009,5.1,195min,999min+,0.7,0.8,19500,90,72,0,0.7,0.5,1
5,600i Touring,Origin,Ship,Exploration,Luxury Touring,91.5,52,17,1 544 667,165,325,975,19,19,30,29,29,60,4.1,2,2,3.6,2,1.5,1.2,1.35,1.3,1.2,180,0.009,5.1,195min,999min+,0.7,0.8,19500,90,72,0,0.7,0.5,1
6,890 Jump,Origin,Ship,Exploration,Luxury Touring,210,80,45,43 896 159,110,280,915,10,10,15,15,15,30,2.5,1.5,1,2,1.5,1.5,1.2,1.35,1.3,1.2,1 200,0.036,14.6,80min,999min+,0.7,1,40800,108,86,0,0.75,0.6,1
3,A1 Spirit,Crusader,Ship,Combat,Bomber,47.5,44,10,259 271,204,405,1 130,38,30,101,46,36,121,8.3,3,4,4,3,1.3,1.3,1.35,1.3,1.3,45,0.0018,1.8,130min,840min,0.7,0.6,12000,77,56,0,0.75,0.6,1
5,A2 Hercules Starlifter,Crusader,Ship,Combat,Heavy Bomber,94,70,23,2 339 240,160,320,950,20,18,30,30,27,60,4.4,1.7,2.1,2.2,2.2,1.5,1.2,1.35,1.3,1.2,132,,6.6,70min,999min+,0.7,0.6,31688,110,80,0,0.7,0.5,1
5,Apollo Medivac,RSI,Ship,Support,Medical,65,45,14,630 456,175,340,1 000,27,20,65,32,24,78,4.2,2.5,3,2,2,1.4,1.4,1.3,1.4,1.3,63,0.00108,4.5,130min,999min+,0.7,0.6,16335,81,65,0,0.7,0.5,1
5,Apollo Triage,RSI,Ship,Support,Medical,65,45,14,630 456,170,345,1 025,24,24,65,29,29,78,4,2.5,2.5,2,2,1.4,1.4,1.3,1.4,1.3,63,0.00108,4.35,140min,999min+,0.7,0.6,14850,77,62,0,0.7,0.5,1
3,Ares Star Fighter Inferno,Crusader,Ship,Combat,Heavy Fighter,27,30,6,325 001,205,385,1 050,36,36,105,43,43,126,7.8,2.9,4.5,4.5,3.5,1.3,1.25,1.35,1.3,1.3,45,,1.8,140min,999min+,0,0.4,18000,77,56,0,0.75,0.6,1
3,Ares Star Fighter Ion,Crusader,Ship,Combat,Heavy Fighter,27,30,6,325 001,205,385,1 050,36,36,105,43,43,126,7.8,2.9,4.5,4.5,3.5,1.3,1.25,1.35,1.3,1.3,45,,1.8,140min,999min+,0,0.4,18000,77,56,0,0.75,0.6,1
2,Arrow,Anvil,Ship,Combat,Light Fighter,16,12,4,30 510,229,515,1 215,75,57,205,90,68,246,13.5,4.5,10.7,10.7,5.2,1.55,1.4,1.3,1.3,1.35,7.5,,1.1,120min,380min,0,0.3,4125,12,6,0,0.75,0.6,1
4,Asgard,Anvil,Ship,Combat,Dropship,48.7,34.1,14.1,610 246,203,425,1 075,32.5,27.5,95,39,33,114,4.6,2.5,3.6,3.8,3.8,1.5,1.4,1.2,1.3,1.4,97.5,,1.85,195min,999min+,0.7,0.5,22275,92,49,0,0.7,0.5,1
2,Aurora CL,RSI,Ship,Transporter,Light Freight,18,8,4,24 774,220,440,1 150,58,53,135,70,64,162,10.3,3.9,6,6,4.6,1.4,1.3,1.35,1.3,1.4,4.5,0.0003,1.1,80min,170min,0,0.4,4800,11,9,0,0.75,0.6,1
2,Aurora ES,RSI,Ship,Multi-Role,Starter / Pathfinder,18,8,4,24 838,222,440,1 180,62,57,140,74,68,168,11.1,3.9,6.9,6.9,5.1,1.4,1.3,1.35,1.3,1.4,4.5,0.0003,1.1,80min,170min,0,0.4,4800,11,9,0,0.75,0.6,1
2,Aurora LN,RSI,Ship,Combat,Light Fighter,18,8,4,27 066,225,450,1 200,65,59,146,78,71,175,11.8,4,7.2,7.2,5.6,1.4,1.3,1.35,1.3,1.4,4.5,,1.1,70min,170min,0,0.4,4800,11,9,0,0.75,0.6,1
2,Aurora LX,RSI,Ship,Exploration,Pathfinder,18,8,4,25 088,222,440,1 250,58,53,135,70,64,162,11.5,3.9,6.2,6.2,5.1,1.4,1.3,1.35,1.3,1.4,4.5,0.0003,1.8,80min,170min,0,0.4,4800,11,9,0,0.75,0.6,1
2,Aurora Mk II,RSI,Ship,Multi-Role,Starter / Light Fighter,27.5,10.5,5.5,63 500,225,460,1 230,58,52,140,70,62,168,11.5,3.8,6.5,6.5,5,1.65,1.3,1.35,1.3,1.4,10,0.0003,1.5,80min,310min,0.7,1,4800,11,9,0,0.75,0.6,1
2,Aurora Mk I SE,RSI,Ship,Combat,Light Fighter,18.5,8.25,4,27 066,225,450,1 200,65,59,146,78,71,175,11.8,3.9,7.1,7.1,5.6,1.4,1.3,1.35,1.3,1.4,4.5,,1.1,70min,170min,0,0.4,4800,11,9,0,0.75,0.6,1
2,Aurora MR,RSI,Ship,Combat,Light Fighter,18,8,4,26 245,227,470,1 230,59,51,137,71,61,164,12.3,3.9,6,6,4.7,1.4,1.3,1.35,1.3,1.4,4.5,,1.1,70min,170min,0,0.4,4800,11,9,0,0.75,0.6,1
2,Avenger Stalker,Aegis,Ship,Combat,Interceptor,22.5,16.5,5.5,48 986,262,610,1 425,53,48,190,64,58,228,15.5,4,6,6,4,1.675,1.3,1.35,1.35,1.35,9,,1.1,120min,450min,1,0.4,1540,11,9,0,0.8,0.65,1
2,Avenger Titan,Aegis,Ship,Transporter,Light Freight,22.5,16.5,5.5,48 987,262,610,1 425,53,48,190,64,58,228,15.5,4,6,6,4,1.675,1.3,1.35,1.35,1.35,9,0.00132,1.1,120min,460min,1,0.4,3300,11,9,0,0.8,0.65,1
2,Avenger Titan Renegade,Aegis,Ship,Transporter,Light Freight,22.5,16.5,5.5,48 986,262,610,1 425,53,48,190,64,58,228,15.5,4,6,6,4,1.675,1.3,1.35,1.35,1.35,9,0.00132,1.1,120min,460min,1,0.4,3300,11,9,0,0.8,0.65,1
2,Avenger Warlock,Aegis,Ship,Combat,Interdiction,22.5,16.5,5.5,48 987,262,610,1 425,53,48,190,64,58,228,15.5,4,6,6,4,1.675,1.3,1.35,1.35,1.35,9,,1.1,120min,450min,1,0.4,3300,11,9,0,0.8,0.65,1
4,Ballista,Anvil,Ground Vehicle,Combat,Anti-Air,17,7,5,76 816,,,,,,,,,,,,,,,,,,,,,,,,,2.727273,1,2681,6,3,0,0.6,0.4,1
2,Blade,Esperia,Ship,Combat,Light Fighter,16.5,20,5.5,23 219,227,500,1 191,70,52,195,84,62,234,13,4.4,10,10,4.9,1.55,1.4,1.3,1.3,1.35,8,,1.1,100min,280min,0,0.5,4125,11,7,0,0.75,0.6,1
2,Buccaneer,Drake,Ship,Combat,Light Fighter,15,16,4.5,36 527,240,600,1 400,49,42,155,59,50,186,15,3.4,4.4,6,3.4,1.7,1.3,1.35,1.35,1.35,7.5,,1.3,60min,150min,0,0.4,2700,9,8,0,0.75,0.6,1
3,C1 Spirit,Crusader,Ship,Transporter,Light Freight,47.5,44,10,259 271,204,405,1 130,38,30,101,46,36,121,8.3,3,4,4,3,1.3,1.3,1.35,1.3,1.3,45,0.0018,1.8,130min,840min,0.7,0.6,12000,77,56,0,0.75,0.6,1
5,C2 Hercules Starlifter,Crusader,Ship,Transporter,Heavy Freight,94,70,23,2 339 240,160,320,950,20,18,30,30,27,60,4.4,1.7,2.1,2.2,2.2,1.5,1.2,1.35,1.3,1.2,132,,6.6,70min,999min+,0.7,0.8,16250,110,80,0,0.7,0.5,1
1,C8 Pisces,Anvil,Ship,Exploration,Pathfinder,13,10,3.25,45 243,220,460,1 150,60,60,150,72,72,180,7.9,2.4,4.4,6.2,5.4,1.55,1.4,1.3,1.3,1.3,3.2,0.00072,1.8,39min,112min,0.7,0.4,3025,12,6,0,0.7,0.5,1
1,C8R Pisces Rescue,Anvil,Ship,Support,Medical,13,10,3.25,45 243,220,460,1 150,56,56,142,67,67,170,7.9,2.4,4.4,6.2,5.4,1.55,1.4,1.3,1.3,1.3,3.2,0.00072,1.8,39min,112min,0.7,0.4,3025,12,6,0,0.7,0.5,1
1,C8X Pisces Expedition,Anvil,Ship,Exploration,Pathfinder,13,10,3.25,45 243,220,460,1 150,60,60,150,72,72,180,7.9,2.4,4.4,6.2,5.4,1.55,1.4,1.3,1.3,1.3,3.2,0.00072,1.8,39min,112min,0.7,0.4,3025,12,6,0,0.7,0.5,1
5,Carrack,Anvil,Ship,Exploration,Expedition,126.5,76.5,30,3 275 858,140,315,1 050,16,16,30,19,19,36,3.8,1.5,1.1,2,1.1,1.5,1.2,1.35,1.3,1.2,360,0.048,10.6,195min,999min+,0.7,0.9,23375,120,64,0,0.75,0.6,1
5,Caterpillar,Drake,Ship,Transporter,Medium Freight,111.5,39.5,13.4,1 508 063,130,300,900,16,16,25,19,19,30,3.5,1.5,1.5,2,1.5,1.35,1.4,1.3,1.4,1.3,250.5,0.003,8.6,315min,999min+,0.7,0.8,21038,90,80,0,0.7,0.5,1
5,Caterpillar Pirate,Drake,Ship,Transporter,Medium Freight,111.5,39.5,13.4,1 508 063,130,300,900,16,16,25,19,19,30,3.5,1.5,1.5,2,1.5,1.35,1.4,1.3,1.4,1.3,250.5,0.003,8.6,315min,999min+,0.7,0.8,21038,90,80,0,0.7,0.5,1
4,Centurion,Anvil,Ground Vehicle,Combat,Anti-Air,17,7,5.5,77 016,,,,,,,,,,,,,,,,,,,,,,,,,2.727273,1,2681,6,3,0,0.6,0.4,1
2,Clipper,Drake,Ship,Exploration,Generalist,26.5,50,13,130 562,205,405,1 000,38,38,125,46,46,150,8.9,3.4,5.5,5.4,4.4,1.4,1.3,1.35,1.3,1.3,15,0.0018,1.7,70min,280min,0.7,0.4,3600,9,8,0,0.75,0.6,1
4,Constellation Andromeda,RSI,Ship,Multi-Role,Medium Freight / Gun Ship,61,26,14,386 857,190,390,1 000,25,21,45,30,25,54,5.2,2.6,2.6,3.1,2.6,1.5,1.2,1.35,1.3,1.2,66,,4.1,240min,999min+,0.7,0.7,18900,77,62,0,0.75,0.6,1
4,Constellation Aquila,RSI,Ship,Exploration,Expedition,61,26,14,406 543,180,380,1 075,25,21,45,30,25,54,5,2.5,2.6,3.2,2.6,1.5,1.2,1.35,1.3,1.2,104.5,0.006,5.6,390min,999min+,0.7,0.7,18900,77,62,0,0.75,0.6,1
4,Constellation Phoenix,RSI,Ship,Exploration,Luxury Touring,61,26,14,383 801,185,385,995,25,21,45,30,25,54,5.1,2.5,2.5,3.1,2.5,1.5,1.2,1.35,1.3,1.2,66,,4.1,240min,999min+,0.7,0.7,12600,77,62,0,0.75,0.6,1
4,Constellation Taurus,RSI,Ship,Transporter,Medium Freight,69,26,14,383 801,180,380,950,25,21,45,30,25,54,5,2.5,2.6,3.2,2.6,1.5,1.2,1.35,1.3,1.2,66,0.006,4.1,225min,999min+,0.7,0.7,12600,77,62,0,0.75,0.6,1
4,Corsair,Drake,Ship,Exploration,Expedition,55,56,11,380 456,190,390,1 025,26,20,44,31,24,53,5.1,2,2,2.6,2.1,1.5,1.2,1.35,1.3,1.2,116,0.00324,5.2,330min,999min+,0.7,0.8,14175,63,56,0,0.75,0.6,1
1,CSV-SM,Argo,Ground Vehicle,Transporter,Light Freight,5.44,4.13,2.81,6 755,,,,,,,,,,,,,,,,,,,,,,,,,2.727273,1,1625,5,4,0,0.75,0.6,1
3,Cutlass Black,Drake,Ship,Multi-Role,Light Freight / Medium Fighter,36,26.5,14,242 177,217,465,1 150,39,35,110,47,42,132,10.3,3.8,8,8.2,4.1,1.5,1.4,1.35,1.3,1.4,36,0.0012,1.8,100min,670min,0.7,0.5,9113,50,45,0,0.75,0.6,1
3,Cutlass Blue,Drake,Ship,Combat,Interdiction,36,26.5,14,222 300,220,467,1 165,38,34,110,46,41,132,10.3,3.8,8,8.3,4.1,1.5,1.4,1.35,1.3,1.4,36,0.0012,1.8,110min,670min,0.7,0.5,6075,50,45,0,0.75,0.6,1
3,Cutlass Red,Drake,Ship,Support,Medical,36,26.5,14,222 300,212,460,1 125,37,32,107,44,38,128,10.3,3.8,8,8.3,4.2,1.5,1.4,1.35,1.3,1.4,36,0.0012,1.8,110min,670min,0.7,0.5,6075,50,45,0,0.75,0.6,1
3,Cutlass Steel,Drake,Ship,Combat,Dropship,36,26.5,14,242 177,200,420,1 100,35,30,100,42,36,120,9.7,3.3,3.9,5.4,5.9,1.5,1.4,1.2,1.3,1.4,36,0.0012,1.8,120min,670min,0.7,0.5,13669,50,45,0,0.7,0.5,1
2,Cutter,Drake,Ship,Exploration,Starter / Pathfinder,20,13,6,81 677,180,380,1 010,36,36,100,43,43,120,8.4,3.1,6.6,5.2,3.6,1.4,1.35,1.3,1.3,1.3,12,0.0009,1.1,90min,340min,0.7,0.4,2475,9,8,0,0.7,0.5,1
2,Cutter Rambler,Drake,Ship,Exploration,Expedition,20,13,6,81 677,180,380,1 010,36,36,100,43,43,120,8.4,3.1,6.6,5.2,3.6,1.4,1.35,1.3,1.3,1.3,24,0.0009,2.2,180min,670min,0.7,0.4,2475,9,8,0,0.7,0.5,1
2,Cutter Scout,Drake,Ship,Exploration,Pathfinder,20,13,6,87 677,180,380,1 010,36,36,100,43,43,120,7.8,2.9,5.8,4.8,3.4,1.4,1.35,1.3,1.3,1.3,12,0.0009,1.1,90min,340min,0.7,0.4,2475,9,8,0,0.7,0.5,1
1,Cyclone,Tumbril,Ground Vehicle,Combat,Passenger,6,4,2.5,4 264,,,,,,,,,,,,,,,,,,,,,,,,,2.727273,1,1625,5,4,0,0.6,0.4,1
1,Cyclone AA,Tumbril,Ground Vehicle,Combat,Anti-Air,6,4,2.5,4 264,,,,,,,,,,,,,,,,,,,,,,,,,2.727273,1,1625,5,4,0,0.6,0.4,1
1,Cyclone MT,Tumbril,Ground Vehicle,Combat,Anti-Air,6,4,2.5,4 264,,,,,,,,,,,,,,,,,,,,,,,,,2.727273,1,1625,5,4,0,0.6,0.4,1
1,Cyclone RC,Tumbril,Ground Vehicle,Competition,Racing,6,4,2.5,4 264,,,,,,,,,,,,,,,,,,,,,,,,,2.727273,1,1625,5,4,0,0.6,0.4,1
1,Cyclone RN,Tumbril,Ground Vehicle,Exploration,Pathfinder,6,4,2.5,4 264,,,,,,,,,,,,,,,,,,,,,,,,,2.727273,1,1625,5,4,0,0.6,0.4,1
1,Cyclone TR,Tumbril,Ground Vehicle,Combat,Anti-Vehicle,6,4,2.5,4 264,,,,,,,,,,,,,,,,,,,,,,,,,2.727273,1,1625,5,4,0,0.6,0.4,1
2,Defender,Banu,Ship,Combat,Light Fighter,25.5,20,8,119 930,222,480,1 175,61,61,170,73,73,204,11.9,4.2,8.9,8.8,4.4,1.55,1.4,1.35,1.3,1.35,43,,3.1,180min,999min+,0.7,0.4,6750,20,16,0,0.75,0.6,1
1,Dragonfly,Drake,Gravlev,Competition,Racing,6,2.5,1.5,5 600,190,270,270,70,70,130,84,84,156,2.4,2.1,1.5,1.9,1.9,1.35,1.35,1.3,1.2,1.2,1.5,,,46min,49min,0,0.4,1463,5,4,0,0.75,0.6,1
1,Dragonfly Yellowjacket,Drake,Gravlev,Competition,Racing,6,2.5,1.5,5 600,190,270,270,70,70,130,84,84,156,2.4,2.1,1.5,1.9,1.9,1.35,1.35,1.3,1.2,1.2,1.5,,,46min,49min,0,0.4,1463,5,4,0,0.75,0.6,1
2,Eclipse,Aegis,Ship,Combat,Stealth Bomber,20.5,36.6,4.4,45 720,210,510,1 100,38,31,115,46,37,138,10.5,4.5,6.5,6.5,3.5,1.5,1.4,1.35,1.3,1.4,9,,1.8,150min,420min,0,0.5,3080,11,9,0,0.75,0.6,1
2,F7A Hornet Mk I,Anvil,Ship,Combat,Medium Fighter,22.5,21.5,6.5,72 032,220,479,1 146,53,42,147,64,50,176,10.7,3.8,6.9,7.8,4.2,1.55,1.4,1.35,1.35,1.35,14,0.00216,1.3,225min,900min,0,0.4,8250,24,13,0,0.75,0.6,1
2,F7A Hornet Mk II,Anvil,Ship,Combat,Medium Fighter,22.5,21,6,66 117,220,479,1 146,50,40,143,60,48,172,10.8,3.9,7.3,7.7,4.4,1.55,1.4,1.35,1.35,1.35,16,0.00216,1.3,140min,840min,0,0.4,8250,24,13,0,0.75,0.6,1
2,F7C Hornet Mk I,Anvil,Ship,Combat,Medium Fighter,22.5,21.5,6.5,72 032,220,480,1 150,55,44,149,66,53,179,11.4,4,7.9,8.2,7.5,1.55,1.4,1.35,1.35,1.35,12,0.00216,1.3,150min,770min,0,0.4,8250,24,13,0,0.75,0.6,1
2,F7C Hornet Mk II,Anvil,Ship,Combat,Medium Fighter,22.5,21,6,62 117,220,480,1 150,52,43,148,62,52,178,11,3.9,7.6,8,4.6,1.55,1.4,1.35,1.35,1.35,16,0.00216,1.3,140min,840min,0,0.4,8250,24,13,0,0.75,0.6,1
2,F7C Hornet Wildfire Mk I,Anvil,Ship,Combat,Medium Fighter,22.5,21.5,6.5,72 032,220,480,1 150,55,44,149,66,53,179,11.3,4,7.9,8.1,7.4,1.55,1.4,1.35,1.35,1.35,12,0.00216,1.3,150min,770min,0,0.4,8250,24,13,0,0.75,0.6,1
2,F7C-M Hornet Heartseeker Mk I,Anvil,Ship,Combat,Medium Fighter,25.5,24,6.5,76 786,219,477,1 142,53,42,145,64,50,174,10.9,3.9,7.2,7.9,4.4,1.55,1.4,1.35,1.35,1.35,13.5,0.00216,1.3,110min,870min,0,0.4,8250,24,13,0,0.75,0.6,1
2,F7C-M Hornet Heartseeker Mk II,Anvil,Ship,Combat,Medium Fighter,24,24,5.5,68 317,215,465,1 125,50,40,140,60,48,168,9.8,3.2,6.5,6.9,4,1.55,1.4,1.35,1.35,1.35,16,0.00216,1.3,150min,840min,0,0.4,8250,24,13,0,0.75,0.6,1
2,F7C-M Super Hornet Mk I,Anvil,Ship,Combat,Medium Fighter,25.5,24,6.5,76 786,219,477,1 142,53,42,145,64,50,174,10.9,3.9,7.2,7.9,4.4,1.55,1.4,1.35,1.35,1.35,13.5,0.00216,1.3,110min,870min,0,0.4,8250,24,13,0,0.75,0.6,1
2,F7C-M Super Hornet Mk II,Anvil,Ship,Combat,Medium Fighter,24,24,5.5,68 317,215,465,1 125,50,40,140,60,48,168,9.8,3.2,6.5,6.9,4,1.55,1.4,1.35,1.35,1.35,16,0.00216,1.3,150min,840min,0,0.4,8250,24,13,0,0.75,0.6,1
2,F7C-R Hornet Tracker Mk I,Anvil,Ship,Exploration,Pathfinder,22.5,21.5,6.5,72 097,219,477,1 142,56,45,150,67,54,180,11.2,4,7.6,8,4.7,1.55,1.4,1.35,1.35,1.35,12,0.00216,1.8,150min,770min,0,0.4,8250,24,13,0,0.75,0.6,1
2,F7C-R Hornet Tracker Mk II,Anvil,Ship,Combat,Pathfinder,22.2,22,6,66 117,220,480,1 150,52,43,148,62,52,178,11,3.9,7.6,8,4.6,1.55,1.4,1.35,1.35,1.35,14.4,0.00216,1.8,130min,750min,0,0.4,3850,24,13,0,0.75,0.6,1
2,F7C-S Hornet Ghost Mk I,Anvil,Ship,Combat,Stealth Fighter,22.5,21.5,6.5,71 624,219,477,1 142,55,44,149,66,53,179,11.1,4,7.8,8.1,4.8,1.55,1.4,1.35,1.35,1.35,12,0.00216,1.3,150min,770min,0,0.4,8250,24,13,0,0.75,0.6,1
2,F7C-S Hornet Ghost Mk II,Anvil,Ship,Combat,Stealth Fighter,22.2,22,6,66 117,220,480,1 150,51,42,147,61,50,176,11,3.9,7.6,8,4.6,1.55,1.4,1.35,1.35,1.35,14.4,0.00216,1.3,130min,750min,0,0.4,8250,24,13,0,0.75,0.6,1
2,F8C Lightning,Anvil,Ship,Combat,Heavy Fighter,26,25,8,153 775,210,445,1 075,38,35,140,46,42,168,10,3.5,6.5,6.5,3.5,1.5,1.4,1.35,1.3,1.4,37.2,0.00216,1.3,180min,999min+,0,0.3,13613,84,45,0,0.75,0.6,1
2,Fortune,MISC,Ship,Industrial,Light Salvage,26,16,7,137 700,143,350,975,32,32,75,38,38,90,5,3.8,2.9,3.8,3.7,1.4,1.4,1.3,1.4,1.3,21,0.00078,1.8,140min,530min,0.7,0.5,5143,9,10,0,0.7,0.5,1
3,Freelancer,MISC,Ship,Transporter,Light Freight,38,23.5,9.5,219 396,197,400,1 050,32,32,103,38,38,124,6,2.5,4.5,4.5,3,1.3,1.4,1.35,1.4,1.35,108,0.003,1.8,570min,999min+,0.7,0.6,13200,63,67,0,0.75,0.6,1
3,Freelancer DUR,MISC,Ship,Exploration,Expedition,38,23.5,9.5,222 418,200,403,1 100,32,32,103,38,38,124,6.5,2.5,4.4,4.5,3,1.3,1.4,1.35,1.4,1.35,140,0.003,2.4,720min,999min+,0.7,0.6,13200,63,67,0,0.75,0.6,1
3,Freelancer MAX,MISC,Ship,Transporter,Medium Freight,38,36,9.5,341 408,195,395,1 025,30,30,95,36,36,114,6,2.5,3,3,2.5,1.3,1.4,1.35,1.4,1.35,58.5,0.003,1.8,195min,999min+,0.7,0.6,13200,63,67,0,0.75,0.6,1
3,Freelancer MIS,MISC,Ship,Combat,Gunship,38,23.5,9.5,223 553,204,410,1 000,35,31,107,42,37,128,7.5,3,4.6,4.6,4,1.3,1.4,1.35,1.4,1.35,58,0.003,1.8,300min,999min+,0.7,0.5,19800,63,67,0,0.75,0.6,1
1,Fury,Mirai,Ship,Combat,Snub Fighter,8,5.4,2.6,13 939,230,550,550,69,69,215,83,83,258,13,4.5,10,10.8,10.8,1.55,1.4,1.3,1.3,1.3,2.75,,,47min,95min,0,0.5,2063,5,5,0,0.85,0.7,1
1,Fury LX,Mirai,Ship,Competition,Racing,7,5.4,2.6,12 832,900,1280,1280,72,72,230,86,86,276,16.5,4.5,12.3,12.9,12.9,1.55,1.35,1.35,1.35,1.35,2.75,,,40min,76min,0,0.5,688,5,5,0,0.85,0.7,1
1,Fury MX,Mirai,Ship,Combat,Snub Bomber,7,5.4,2.6,13 939,230,550,550,69,69,215,83,83,258,13,4.5,10,10.8,10.8,1.55,1.4,1.3,1.3,1.3,2.75,,,46min,95min,0,0.5,2063,5,5,0,0.85,0.7,1
2,Gladiator,Anvil,Ship,Combat,Bomber,22.5,22.5,6,86 108,210,480,1 125,40,40,130,48,48,156,9.5,3.8,5.7,6.6,2.8,1.55,1.4,1.35,1.3,1.35,15,,1.3,255min,830min,0,0.4,13200,24,13,0,0.75,0.6,1
2,Gladius,Aegis,Ship,Combat,Light Fighter,20,17,5.5,48 552,226,520,1 193,68,52,200,82,62,240,13.6,4.2,10,10,5,1.55,1.4,1.3,1.3,1.35,13.5,,1.3,170min,630min,0,0.4,4125,11,9,0,0.75,0.6,1
2,Gladius Dunlevy,Aegis,Ship,Combat,Light Fighter,20,17,5.5,48 552,226,520,1 193,68,52,200,82,62,240,13.6,4.2,10,10,5,1.55,1.4,1.3,1.3,1.35,13.5,,1.3,170min,630min,0,0.4,4125,11,9,0,0.75,0.6,1
2,Gladius Pirate,Aegis,Ship,Combat,Light Fighter,20,17,5.5,48 552,226,520,1 193,68,52,200,82,62,240,13.6,4.2,10,10,5,1.55,1.4,1.3,1.3,1.35,13.5,,1.3,170min,630min,0,0.4,4125,11,9,0,0.75,0.6,1
2,Gladius Valiant,Aegis,Ship,Combat,Light Fighter,20,17,5.5,50 152,226,520,1 193,68,52,200,82,62,240,13.6,4.2,10,10,5,1.55,1.4,1.3,1.3,1.35,13.5,,1.3,170min,630min,0,0.4,4125,11,9,0,0.75,0.6,1
3,Glaive,Esperia,Ship,Combat,Medium Fighter,31,31.5,8.5,76 520,218,480,1 150,60,43,155,72,52,186,10.5,4,7.7,7.7,4.5,1.55,1.4,1.35,1.3,1.35,9,,1.3,70min,310min,0,0.5,8250,22,14,0,0.75,0.6,1
2,Golem,Drake,Ship,Industrial,Starter / Light Mining,15.5,7,4.5,69 217,203,280,1 010,43,43,140,52,52,168,9.7,4.4,5.8,6.8,3.9,1.55,1.4,1.3,1.3,1.35,24,0.0009,0.95,70min,610min,0,0.5,8415,18,16,0,0.7,0.5,1
2,Golem OX,Drake,Ship,Industrial,Light Freight,15.5,7,4.5,76 217,200,280,1 000,40,40,135,48,48,162,9.7,4.3,5.8,6.8,3.8,1.55,1.4,1.3,1.3,1.35,24,0.0009,1.1,70min,610min,0,0.5,8415,18,16,0,0.7,0.5,1
2,Guardian,Mirai,Ship,Combat,Heavy Fighter,25,16.5,9,113 100,213,465,1 125,45,45,130,54,54,156,10.1,3.8,8.2,8.2,8.2,1.5,1.4,1.35,1.3,1.4,9,0.0018,1.8,56min,230min,0,0.6,11250,84,62,0,0.75,0.6,1
2,Guardian MX,Mirai,Ship,Combat,Heavy Fighter,25,20,11,123 540,208,455,1 100,39,39,120,47,47,144,9.1,3.5,6.8,6.8,6.8,1.5,1.4,1.35,1.3,1.4,9,0.0018,1.8,58min,230min,0,0.6,13500,84,62,0,0.75,1.1,1
2,Guardian QI,Mirai,Ship,Combat,Interdiction,25,16.5,9,113 100,210,460,1 100,42,42,125,50,50,150,10.3,3.8,8.2,8.2,8.2,1.5,1.4,1.35,1.3,1.4,9,0.0018,1.8,56min,230min,0,0.6,11250,84,62,0,0.75,0.6,1
5,Hammerhead,Aegis,Ship,Combat,Heavy Gunship,120,72,16,4 542 311,160,320,950,20,20,30,30,30,60,5,2,2,2.5,2.5,1.5,1.2,1.35,1.3,1.2,450,,6.6,160min,999min+,0.7,0.6,32175,152,101,0,0.7,0.5,1
2,Hawk,Anvil,Ship,Combat,Light Fighter,17,22,6.5,64 166,225,490,1 217,63,52,190,76,62,228,12.8,4.1,9.7,9.7,4.8,1.55,1.4,1.3,1.3,1.35,10.5,,1.1,80min,420min,0,0.4,4125,12,6,0,0.75,0.6,1
2,Herald,Drake,Ship,Transporter,Medium Data,23.5,12.5,9,62 205,245,670,1 450,47,40,150,56,48,180,16.2,4.2,4.3,5.7,3.3,1.8,1.3,1.35,1.35,1.35,10.5,,1.3,80min,320min,0.7,0.5,6120,18,16,0,0.75,0.6,1
5,Hermes,RSI,Ship,Transporter,Medium Freight,65,58,14,630 456,180,370,1 200,26,26,60,31,31,72,3.9,2.4,1.9,1.9,1.9,1.4,1.4,1.3,1.4,1.3,70,0.00108,4.65,170min,999min+,0.7,1,14850,77,62,0,0.75,0.6,1
1,HoverQuad,C.O.,Gravlev,Exploration,Passenger,4.5,2.5,1.1,4 850,200,280,280,70,70,130,84,84,156,2.5,2.1,1.3,1.9,1.9,1.35,1.35,1.3,1.2,1.2,1.6,,,37min,39min,0,1,1625,5,4,0,0.75,0.6,1
2,Hull A,MISC,Ship,Transporter,Light Freight,17,4,4,107 050,185,385,1 050,42,42,100,50,50,120,7.4,4,4.4,4.4,4,1.4,1.4,1.3,1.4,1.3,16.4,0.00042,1.8,110min,440min,0.7,0.4,6050,18,19,0,0.7,0.5,1
5,Hull C,MISC,Ship,Transporter,Heavy Freight,90,35.5,25,726 530,110,290,890,16,16,25,19,19,30,3,2.2,0.8,2.2,2.2,1.35,1.4,1.3,1.4,1.3,877,0.003,8.6,999min+,999min+,0.7,0.9,15125,90,96,0,0.7,0.5,1
2,Hurricane,Anvil,Ship,Combat,Heavy Fighter,22,18.2,6,86 745,214,480,1 125,46,37,130,55,44,156,10,3.6,7.5,7.5,4.4,1.55,1.4,1.33,1.3,1.34,13.5,,1.3,110min,630min,0,0.4,12375,84,45,0,0.75,0.6,1
6,Idris M,Aegis,Ship,Combat,Frigate,240,125,45,37 854 373,110,220,850,7,7,12,8,8,14,2,1.5,0.8,2,1.8,1.5,1.2,1.35,1.3,1.2,6 400,,120,510min,999min+,0.7,1,109395,173,139,0,0.75,0.6,1
6,Idris P,Aegis,Ship,Combat,Frigate,240,125,45,37 854 373,110,220,850,7,7,12,8,8,14,2,1.5,0.8,2,1.8,1.5,1.2,1.35,1.3,1.2,6 400,,120,510min,999min+,0.7,1,109395,173,139,0,0.75,0.6,1
2,Intrepid,Crusader,Ship,Starter,Starter / Light Freight,23.2,20.3,6.2,66 943,227,455,1 225,48,48,145,58,58,174,12.6,3.8,5.7,6.5,5.6,1.4,1.3,1.35,1.3,1.4,26,0.0018,1.8,225min,820min,0.7,0.4,4000,11,8,0,0.75,0.6,1
3,Khartu-al,Aopoa,Ship,Combat,Light Fighter,15,21.5,30.5,68 351,224,504,1 183,67,67,210,80,80,252,12,4.4,12,12,12,1.4,1.35,1.4,1.4,1.4,26,0.00174,1.1,510min,999min+,0,0.4,3000,10,9,0,0.75,0.6,1
2,L-21 Wolf,Kruger,Ship,Combat,Light Fighter,21.5,10.5,4.2,23 350,230,510,1 225,72,52,210,86,62,252,15,4.7,9.7,9.7,5.5,1.4,1.3,1.35,1.3,1.4,9,,0.9,80min,200min,0,0.4,3375,10,8,0,0.75,0.6,1
2,L-22 Alpha Wolf,Kruger,Ship,Combat,Light Fighter,21.5,10.5,4.2,23 350,225,500,1 225,74,54,210,89,65,252,14,4.7,10.2,10.2,5.5,1.4,1.3,1.35,1.3,1.4,9,,0.9,80min,200min,0,0.4,3375,10,8,0,0.75,0.6,1
3,Lynx,RSI,Ground Vehicle,Transporter,Luxury Touring,7.75,5.7,3.15,13 600,,,,,,,,,,,,,,,,,,,,,,,,,2.727273,1,1950,6,4,0,0.6,0.4,1
5,M2 Hercules Starlifter,Crusader,Ship,Transporter,Heavy Freight,94,70,23,2 339 240,160,320,950,20,18,30,30,27,60,4.4,1.7,2.1,2.2,2.2,1.5,1.2,1.35,1.3,1.2,132,,6.6,70min,999min+,0.7,0.6,29250,110,80,0,0.7,0.5,1
1,M50 Interceptor,Origin,Ship,Competition,Racing,11.5,11,3,9 772,280,490,1 575,55,55,200,66,66,240,18.2,4,5.4,5.5,4.4,1.65,1.3,1.35,1.35,1.35,3,,1,70min,119min,0,0.4,1200,9,7,0,0.85,0.7,1
2,Mantis,RSI,Ship,Combat,Interdiction,30,17,8,224 923,236,605,1 400,50,42,160,60,50,192,14.9,3.5,4.4,5.8,3.4,1.67,1.3,1.35,1.35,1.35,31.61,,1.3,100min,999min+,0.7,0.4,7200,22,18,0,0.75,0.6,1
1,MDC,Greycat,Ground Vehicle,Ground,Anti-Air,7,5.5,2,18 700,,,,,,,,,,,,,,,,,,,,,,,,,2.727273,1,1463,5,4,0,0.6,0.4,1
4,Mercury Star Runner,Crusader,Ship,Transporter,Medium Freight,56,51,16,680 575,217,510,1 300,25,23,53,30,28,64,6.2,3.1,2.6,3.1,2.6,1.7,1.2,1.35,1.3,1.2,100,,3.2,210min,999min+,0.7,0.8,13650,85,62,0,0.75,0.6,1
2,Meteor,RSI,Ship,Combat,Medium Fighter,30,17,8,238 832,229,570,1 405,46,38,155,55,46,186,15.3,3,4.2,5.5,3.2,1.67,1.3,1.35,1.35,1.35,28.95,,1.15,80min,999min+,0,0.4,9000,22,18,0,0.75,0.95,0.95
3,MOLE,Argo,Ship,Industrial,Medium Mining,45,25,15,852 686,140,340,960,30,30,75,36,36,90,4.9,3.4,2.7,3,2.9,1.41,1.39,1.3,1.4,1.3,200,,2.6,315min,999min+,0.7,0.6,14025,70,62,0,0.7,0.5,1
3,MOTH,Argo,Ship,Industrial,Medium Salvage,45,25.75,15,852 686,140,340,960,30,30,75,36,36,90,5,3.5,3,3,3,1.41,1.39,1.3,1.4,1.3,200,,2.6,300min,999min+,0.7,1,14025,70,62,0,0.75,0.6,1
1,MPUV Cargo,Argo,Ship,Transporter,Light Freight,9.5,8.5,4.3,9 210,170,360,360,30,30,85,36,36,102,3.8,2.7,1.9,2.8,2.4,1.4,1.35,1.3,1.3,1.3,3,,,80min,93min,0,0.4,1375,5,4,0,0.7,0.5,1
1,MPUV Personnel,Argo,Ship,Transporter,Passenger,9.25,8.5,4.3,9 210,170,360,360,30,30,85,36,36,102,3.8,2.7,1.9,2.8,2.4,1.4,1.35,1.3,1.3,1.3,3,,,80min,93min,0,0.4,1375,5,4,0,0.7,0.5,1
1,MPUV Tractor,Argo,Ship,Transporter,Light Freight,9,8.5,4,6 195,175,365,365,35,35,85,42,42,102,5,2.9,1.6,4.9,2.1,1.4,1.35,1.3,1.3,1.3,3,,,80min,93min,0,0.4,1375,5,4,0,0.7,0.5,1
1,MTC,Greycat,Ground Vehicle,Ground,Passenger,7,5.5,2,18 700,,,,,,,,,,,,,,,,,,,,,,,,,2.727273,1,1463,5,4,0,0.6,0.4,1
1,Mule,Drake,Ground Vehicle,Transporter,Light Freight,4.2,3,2.7,6 053,,,,,,,,,,,,,,,,,,,,,,,,,2.727273,1,2925,9,8,0,0.6,0.4,1
2,Mustang Alpha,C.O.,Ship,Multi-Role,Starter / Light Freight,21.5,18,9,31 221,228,500,1 218,70,53,205,84,64,246,12.7,4.2,9.8,9.8,5,1.55,1.4,1.3,1.3,1.35,6,0.00048,1.1,60min,210min,0,0.4,2500,10,9,0,0.75,0.6,1
2,Mustang Beta,C.O.,Ship,Exploration,Pathfinder,21.5,18,9,38 113,228,500,1 218,70,53,205,84,64,246,12.8,4.2,9.8,9.7,4.9,1.55,1.4,1.3,1.3,1.35,8,0.00024,1.1,80min,280min,0,0.4,2500,10,9,0,0.75,0.6,1
2,Mustang Delta,C.O.,Ship,Combat,Light Fighter,21.5,18,9,35 763,226,500,1 195,69,52,202,83,62,242,12.4,4,9.5,9.5,4.9,1.55,1.4,1.3,1.3,1.35,7.5,,1.1,70min,260min,0,0.4,2500,10,9,0,0.75,0.6,1
2,Mustang Gamma,C.O.,Ship,Competition,Racing,21.5,18,9,28 565,244,533,1 230,84,65,235,101,78,282,14,4.7,11,11,6,1.55,1.4,1.3,1.3,1.35,6,,1.1,60min,200min,0,0.4,2500,10,9,0,0.75,0.6,1
2,Mustang Omega,C.O.,Ship,Competition,Racing,21.5,18,9,28 565,244,533,1 230,84,65,235,101,78,282,14,4.7,11,11,6,1.55,1.4,1.3,1.3,1.35,6,,1.1,60min,200min,0,0.4,2500,10,9,0,0.75,0.6,1
2,Nomad,C.O.,Ship,Transporter,Starter / Light Freight,27,19,10,216 323,205,450,1 100,45,45,120,54,54,144,10.1,3.5,6,7.8,4.7,1.55,1.4,1.3,1.3,1.35,32.8,0.00096,1.3,110min,999min+,0.7,0.4,2750,10,9,0,0.7,0.5,1
4,Nova,Tumbril,Ground Vehicle,Ground Combat,Heavy Tank,16,7,5,74 950,,,,,,,,,,,,,,,,,,,,,,,,,2.727273,1,4875,10,8,0,0.6,0.4,1
1,Nox,Aopoa,Gravlev,Competition,Racing,5.5,1.5,1.5,4 230,225,305,305,89,89,138,107,107,166,3.1,2.7,1.4,2.5,2.3,2.3,1.2,1.7,1.2,1.2,1.5,0.00006,,41min,44min,0,0.4,1950,5,4,0,0.75,0.6,1
1,P-52 Merlin,Kruger,Ship,Combat,Snub Fighter,12,7.7,2,7 599,275,605,605,58,50,200,70,60,240,16.5,3.5,6,5.9,4.5,1.65,1.3,1.35,1.35,1.35,7,,,140min,230min,0,0.4,450,5,4,0,0.85,0.7,1
1,P-72 Archimedes,Kruger,Ship,Competition,Racing,12,7.7,2,7 599,270,620,620,57,57,190,68,68,228,16.7,3.7,6.5,6.5,4.5,1.65,1.3,1.35,1.35,1.35,7,0.00021,,150min,230min,0,0.4,450,5,4,0,0.85,0.7,1
4,Paladin,Anvil,Ship,Gunship,Gunship,53,37.5,13.6,500 000,175,340,950,23,19,45,28,23,54,4.5,2.3,2.5,2.4,1.9,1.5,1.2,1.35,1.3,1.2,61,,3.85,140min,999min+,0.7,0.5,17325,92,49,0,0.75,0.6,1
5,Perseus,RSI,Ship,Combat,Heavy Gunship,100,56,22,4 037 000,150,350,1 050,15,15,25,23,23,50,5.4,1.8,1.9,1.9,1.9,1.5,1.2,1.35,1.3,1.2,400,,7,150min,999min+,0.7,0.8,60840,132,106,0,0.7,0.5,1
6,Polaris,RSI,Ship,Combat,Corvette,166,82,46,10 427 000,145,250,940,10,8,14,15,12,28,2.7,1.5,1.5,2,2,1.5,1.2,1.35,1.3,1.2,1 100,0.0009,12.6,315min,999min+,0.7,0.8,61200,132,106,0,0.75,0.6,1
2,Prospector,MISC,Ship,Industrial,Light Mining,26,16,7,122 096,156,371,994,35,35,75,42,42,90,5,3.8,3,3.5,3.5,1.4,1.4,1.3,1.4,1.3,21,0.00078,1.8,150min,650min,0.7,0.5,10285,18,19,0,0.7,0.5,1
3,Prowler,Esperia,Ship,Combat,Dropship,34,32,15,148 900,212,450,1 200,38,32,110,46,38,132,9.1,3,4.1,5.1,5.1,1.5,1.4,1.2,1.3,1.4,39,,2,180min,720min,0.7,0.5,15188,50,60,0,0.7,0.5,1
3,Prowler Utility,Esperia,Ship,Transporter,Light Freight,34,32,15,171 700,208,437,1 110,35,30,100,42,36,120,8.2,3,3.6,4.6,4.6,1.5,1.4,1.2,1.3,1.4,43,,2.25,195min,800min,0.7,0.5,15188,50,60,0,0.7,0.5,1
1,PTV,Greycat,Ground Vehicle,Ground,Passenger,3,2,1.8,1 940,,,,,,,,,,,,,,,,,,,,,,,,,2.727273,1,0,0,0,0,0.62,1,1
1,Pulse,Mirai,Gravlev,Ground,Combat,3.15,0.9,1,2 140,204,284,284,84,84,135,101,101,162,2.7,2.4,1.3,1.9,1.9,1.3,1.3,1.3,1.2,1.2,0.65,,,18min,19min,0,0.4,1625,6,4,0,0.75,0.6,1
1,Pulse LX,Mirai,Gravlev,Ground,Racing,3.15,0.9,1,2 140,218,298,298,97,97,145,116,116,174,2.9,2.5,1.5,2.2,2.2,2.3,1.2,1.8,1.2,1.2,0.65,,,17min,18min,0,0.4,813,6,4,0,0.75,0.6,1
3,RAFT,Argo,Ship,Transporter,Medium Freight,39.5,23,12,639 886,140,340,990,30,30,75,36,36,90,4,2.1,3,3,2,1.4,1.4,1.3,1.4,1.3,225,,1.8,450min,999min+,0.7,0.5,8250,70,62,0,0.7,0.5,1
1,Razor,Mirai,Ship,Competition,Racing,11.5,8.2,2.7,10 861,265,595,1 450,59,52,205,71,62,246,16.5,3.6,7,7,4.5,1.65,1.3,1.35,1.35,1.35,3,,1,58min,104min,0,0.4,1650,5,5,0,0.85,0.7,1
1,Razor EX,Mirai,Ship,Combat,Stealth Fighter,11.5,8.2,2.7,10 860,265,595,1 450,59,52,205,71,62,246,16.5,3.6,7,6.9,4.5,1.65,1.3,1.35,1.35,1.35,3,,1,58min,104min,0,0.4,1650,5,5,0,0.85,0.7,1
1,Razor LX,Mirai,Ship,Competition,Racing,11.5,8.2,2.7,11 701,275,490,1 525,62,62,205,74,74,246,17,3.6,8,8,4.5,1.65,1.3,1.35,1.35,1.35,3,,1,58min,104min,0,0.4,550,5,5,0,0.85,0.7,1
6,Reclaimer,Aegis,Ship,Industrial,Heavy Salvage,155,118,50,9 509 854,110,290,870,11,11,14,13,13,17,2,1.5,1,2,2,1.35,1.4,1.3,1.4,1.3,1 754,0.012,8.6,540min,999min+,0.7,0.8,41140,132,106,0,0.7,0.5,1
4,Redeemer,Aegis,Ship,Combat,Gunship,51,25,14,420 870,203,400,1 050,36,30,115,43,36,138,10,2.7,5,5,3,1.3,1.25,1.35,1.3,1.3,66,,1.8,160min,999min+,0.7,0.6,19800,77,62,0,0.75,0.6,1
3,Reliant Kore,MISC,Ship,Transporter,Starter / Light Freight,14.5,28.5,4,35 153,218,480,1 150,54,43,140,65,52,168,11.6,5.2,7.9,7.9,7.9,1.55,1.4,1.33,1.3,1.35,10.5,0.00048,1.3,120min,330min,0,0.4,2750,9,10,0,0.75,0.6,1
3,Reliant Mako,MISC,Ship,Support,Reporting,14.5,28.5,4,35 153,220,480,1 150,54,43,138,65,52,166,11.3,5.5,7.9,7.9,7.9,1.55,1.4,1.33,1.3,1.35,10.5,0.00024,1.3,120min,320min,0,0.4,2750,9,10,0,0.75,0.6,1
3,Reliant Sen,MISC,Ship,Industrial,Light Science,14.5,28.5,4,35 153,220,480,1 150,54,43,138,65,52,166,11.3,5.5,7.9,7.9,7.9,1.55,1.4,1.33,1.3,1.35,10.5,0.00024,1.8,120min,320min,0,0.4,2750,9,10,0,0.75,0.6,1
3,Reliant Tana,MISC,Ship,Combat,Light Fighter,14.5,28.5,4,34 968,222,480,1 150,58,45,155,70,54,186,11.8,6.3,8.4,8.4,8.4,1.55,1.4,1.33,1.3,1.35,7.5,,1.3,80min,230min,0,0.4,4125,9,10,0,0.75,0.6,1
4,Retaliator,Aegis,Ship,Combat,Modular,71,30,9.5,317 870,205,400,1 100,25,23,55,30,28,66,5.1,2.5,2.5,3.1,2.5,1.5,1.2,1.35,1.3,1.2,51,,2.6,195min,999min+,0.7,0.7,17325,77,62,0,0.75,0.6,1
1,ROC,Greycat,Ground Vehicle,Industrial,Light Mining,6,3.9,3.2,2 420,,,,,,,,,,,,,,,,,,,,,,,,,2.727273,1,2486,5,4,0,0.6,0.4,1
1,ROC-DS,Greycat,Ground Vehicle,Industrial,Light Mining,6.6,5,3.3,2 580,,,,,,,,,,,,,,,,,,,,,,,,,2.727273,1,2486,5,4,0,0.6,0.4,1
2,Sabre,Aegis,Ship,Combat,Stealth Fighter,24,26,5,83 093,223,480,1 235,62,48,160,74,58,192,12.2,4.3,8.6,9.1,4.8,1.55,1.4,1.35,1.3,1.35,13.5,,1.3,140min,630min,0,0.4,3465,20,16,0,0.75,0.6,1
2,Sabre Comet,Aegis,Ship,Combat,Stealth Fighter,24,26,5,83 093,223,480,1 235,62,48,160,74,58,192,12.2,4.3,8.6,9.1,4.8,1.55,1.4,1.35,1.3,1.35,13.5,,1.3,140min,630min,0,0.4,3465,20,16,0,0.75,0.6,1
2,Sabre Firebird,Aegis,Ship,Combat,Stealth Fighter,26,30,3.8,73 493,240,600,1 400,49,41,160,59,49,192,14.7,3.4,4.4,5.8,3.4,1.7,1.3,1.35,1.35,1.35,12,,1.3,110min,510min,0,0.4,5940,20,16,0,0.75,0.6,1
2,Sabre Peregrine,Aegis,Ship,Competition,Racing,26,30,3.8,73 493,267,655,1 447,61,51,187,73,61,224,16.9,3.5,5.2,6.8,4.2,1.79,1.23,1.35,1.35,1.35,12,,1.3,100min,510min,0,0.4,1980,20,16,0,0.75,0.6,1
2,Sabre Raven,Aegis,Ship,Combat,Interdiction,24,20.5,5,68 711,240,600,1 400,52,43,160,62,52,192,15,3.4,4.5,6,3.4,1.7,1.3,1.35,1.35,1.35,12,,1.3,110min,510min,0,0.4,2772,20,16,0,0.75,0.6,1
2,Salvation,RSI,Ship,Industrial,Starter / Light Salvage,14.5,8.5,4,62 245,205,290,1 150,45,45,140,54,54,168,7.6,3.8,6.5,6.4,4.4,1.55,1.4,1.3,1.3,1.35,25,0.0009,1,100min,700min,0,0.4,5610,11,9,0,0.7,0.5,1
2,San'tok.yāi,Aopoa,Ship,Combat,Medium Fighter,22,23,23,84 224,227,493,1 161,58,58,160,70,70,192,12,10.9,12.3,10,10,1.55,1.4,1.35,1.35,1.35,14.7,0.00174,1.3,120min,410min,0,0.5,7500,20,16,0,0.75,0.6,1
2,Scorpius,RSI,Ship,Combat,Heavy Fighter,24,32,13,91 462,230,590,1 385,42,34,145,50,41,174,14.7,3.8,4.9,4.8,3.4,1.65,1.3,1.35,1.3,1.4,13.5,,1.8,80min,540min,0,0.5,10800,77,62,0,0.75,0.6,1
2,Scorpius Antares,RSI,Ship,Combat,Heavy Fighter,24,32,13,91 462,230,590,1 385,42,34,145,50,41,174,14.3,3.7,4.8,4.7,3.3,1.65,1.3,1.35,1.3,1.4,13.5,,1.8,80min,540min,0,0.5,10800,77,62,0,0.75,0.6,1
3,Scythe,Vanduul,Ship,Combat,Medium Fighter,31,23,8.5,68 391,222,480,1 150,56,52,147,67,62,176,11.5,4,7,7,4,1.55,1.4,1.35,1.3,1.35,22,,1.3,210min,760min,0.7,0.5,8250,22,14,0,0.75,0.6,1
3,Shiv,Grey's,Ship,Combat,Heavy Fighter,37.5,26.5,11.5,206 577,219,479,1 175,50,42,137,60,50,164,10.4,3.7,6.4,6.4,3.9,1.5,1.4,1.35,1.3,1.4,32,0.0012,1.65,90min,690min,0,0.5,10125,45,36,0,0.75,0.6,1
4,Spartan,Anvil,Ground Vehicle,Combat,Passenger,17,7,5.5,80 016,,,,,,,,,,,,,,,,,,,,,,,,,2.727273,1,2681,6,3,0,0.75,0.6,1
3,SRV,Argo,Ship,Support,Recovery,28.5,19.5,9,449 970,200,460,1 100,30,30,60,36,36,72,3.8,2,1.3,2,2,1.35,1.4,1.3,1.4,1.3,28.5,,3.1,90min,660min,0.7,0.5,4675,10,9,0,0.7,0.5,1
5,Starfarer,MISC,Ship,Support,Heavy Refueling,101,46.5,23.5,3 466 606,106,295,845,23,23,45,28,28,54,2.6,1.4,1.5,2.1,2,1.35,1.4,1.3,1.4,1.3,652.2,0.0132,8.6,570min,999min+,0.7,0.6,15125,90,96,0,0.7,0.5,1
5,Starfarer Gemini,MISC,Ship,Support,Heavy Refueling,101,46.5,23.5,3 494 690,106,295,845,23,23,45,28,28,54,2.6,1.4,1.5,2.1,2,1.35,1.4,1.3,1.4,1.3,652.2,0.006,8.6,570min,999min+,0.7,0.6,22688,95,101,0,0.7,0.5,1
5,Starlancer MAX,MISC,Ship,Transporter,Medium Freight,83,52,16,498 071,160,325,990,31,31,65,37,37,78,3.2,1.7,2,2.4,2.4,1.35,1.4,1.3,1.4,1.3,50,0.003,3.6,90min,910min,0.7,0.7,15125,90,96,0,0.7,0.5,1
5,Starlancer TAC,MISC,Ship,Combat,Gunship,83,52,16,738 071,150,315,960,27,27,60,32,32,72,2.9,1.6,1.8,2.1,2.1,1.35,1.4,1.3,1.4,1.3,48,0.003,3.35,80min,940min,0.7,0.7,22688,99,106,0,0.7,0.5,1
3,Stinger,Esperia,Ship,Combat,Heavy Fighter,35,35,10,248 552,207,440,1 050,34,28,95,41,34,114,8,2.7,5,5,4.5,1.5,1.4,1.35,1.3,1.4,36,0.0036,1.35,120min,979.9833333333333min,0,0.4,12375,77,50,0,0.75,0.6,1
4,Storm,Tumbril,Ground Vehicle,Ground Combat,Light Tank,10.5,7.5,3.6,57 270,,,,,,,,,,,,,,,,,,,,,,,,,2.727273,1,4875,10,8,0,0.6,0.4,1
4,Storm AA,Tumbril,Ground Vehicle,Ground Combat,Light Tank,10.5,7.5,3.6,57 270,,,,,,,,,,,,,,,,,,,,,,,,,2.727273,1,4875,10,8,0,0.6,0.4,1
1,STV,Greycat,Ground Vehicle,Ground,Passenger,4.2,2.8,2,3 570,,,,,,,,,,,,,,,,,,,,,,,,,2.727273,1,1463,5,4,0,0.75,0.6,1
3,Syulen,Gatac,Ship,Multi-Role,Starter / Pathfinder,25,28,16,77 877,225,450,1 175,42,42,135,50,50,162,9.2,4.1,9.2,9.2,5.1,1.55,1.4,1.3,1.3,1.3,40,,1.1,195min,670min,0.7,0.5,5440,11,9,0,0.75,0.6,1
1,Talon,Esperia,Ship,Combat,Light Fighter,26,23.3,8.6,46 242,225,500,1 190,68,54,195,82,65,234,13.1,4.2,9.7,6.9,5.2,1.55,1.4,1.3,1.3,1.35,8,,1.1,55min,220min,0,0.4,3750,8,10,0,0.75,0.6,1
1,Talon Shrike,Esperia,Ship,Combat,Light Fighter,26,23.3,8.6,46 242,225,500,1 190,68,54,195,82,65,234,13.5,4.4,10.1,7.1,5.3,1.55,1.4,1.3,1.3,1.35,8,,1.1,55min,220min,0,0.4,3750,8,10,0,0.75,0.6,1
2,Terrapin,Anvil,Ship,Support,Pathfinder,19.5,14.5,6,149 850,200,320,1 150,35,35,120,42,42,144,9.2,2.4,3,3.4,3.4,1.5,1.4,1.2,1.3,1.4,104.5,0.00108,1.8,870min,999min+,0.7,0.3,12375,97,52,0,0.7,0.5,1
2,Terrapin Medic,Anvil,Ship,Support,Medical,20,15.6,7,149 850,200,320,1 150,35,35,120,42,42,144,9.2,2.4,3,3.4,3.4,1.5,1.4,1.2,1.3,1.4,104.5,0.00108,4,870min,999min+,0.7,0.3,12375,97,52,0,0.7,0.5,1
3,Ursa,RSI,Ground Vehicle,Exploration,Pathfinder,7.75,5.7,3.15,15 200,,,,,,,,,,,,,,,,,,,,,,,,,2.727273,1,1950,6,4,0,0.465,0.6,1
3,Ursa Medivac,RSI,Ground Vehicle,Support,Medical,7.75,5.7,3.15,15 895,,,,,,,,,,,,,,,,,,,,,,,,,2.727273,1,1950,6,4,0,0.465,0.6,1
4,Valkyrie,Anvil,Ship,Combat,Dropship,48,38,12,597 246,207,431,1 110,34,29,98,41,35,118,5.6,2.5,4.1,4.3,4.3,1.5,1.4,1.2,1.3,1.4,94.5,,1.8,170min,999min+,0.7,0.6,22275,92,49,0,0.7,0.5,1
3,Vanguard Harbinger,Aegis,Ship,Combat,Heavy Fighter / Bomber,38.5,40,8.5,230 404,212,462,1 085,41,35,120,49,42,144,9.1,3.2,6.6,6.6,4,1.5,1.4,1.35,1.3,1.4,39,0.003,2,140min,999min+,0,0.5,12375,77,62,0,0.75,0.6,1
3,Vanguard Hoplite,Aegis,Ship,Combat,Dropship,38.5,40,8.5,217 870,209,435,1 115,35,30,105,42,36,126,10.7,2.4,4.1,4.6,5.2,1.5,1.4,1.2,1.3,1.4,39,0.003,2,150min,999min+,0,0.5,18563,77,62,0,0.7,0.5,1
3,Vanguard Sentinel,Aegis,Ship,Combat,Heavy Fighter / Bomber,38.5,40,8.5,225 970,217,462,1 075,44,39,126,53,47,151,9.1,3.3,6.5,6.6,4,1.5,1.4,1.35,1.3,1.4,39,0.003,2,140min,999min+,0,0.5,12375,77,62,0,0.75,0.6,1
3,Vanguard Warden,Aegis,Ship,Combat,Heavy Fighter,38.5,40,8.5,238 070,210,458,1 075,44,38,124,53,46,149,9.1,3.2,6.6,6.6,4,1.5,1.4,1.35,1.3,1.4,40.5,0.003,2,140min,999min+,0,0.5,12375,77,62,0,0.75,0.6,1
2,Vulture,Drake,Ship,Industrial,Light Salvage,33,16,9,182 983,200,350,1 100,55,55,125,66,66,150,5.6,3,4.1,4.1,3,1.3,1.4,1.35,1.4,1.35,36,0.0012,1.1,195min,999min+,0.7,0.5,8415,18,16,0,0.7,0.5,1
1,X1,Origin,Gravlev,Exploration,Passenger,5.5,1.25,1.5,4 730,207,287,287,80,80,135,96,96,162,2.7,2.6,1.3,1.9,1.9,1.35,1.35,1.35,1.2,1.2,0.9,,,18min,19min,0.7,0.4,1950,5,4,0,0.75,0.6,1
1,X1 Force,Origin,Gravlev,Combat,Passenger,5.5,1.25,1.5,4 730,207,287,287,80,80,135,96,96,162,2.7,2.5,1.3,1.9,1.9,1.35,1.35,1.35,1.2,1.2,0.9,,,18min,19min,0.7,0.4,1950,5,4,0,0.75,0.6,1
1,X1 Velocity,Origin,Gravlev,Competition,Racing,5.5,1.25,1.5,4 730,222,302,302,93,93,140,112,112,168,3,2.8,1.5,2.4,2.3,2.3,1.2,2,1.2,1.2,0.9,,,19min,20min,0.7,0.4,1950,5,4,0,0.75,0.6,1
